"PLACE ID","PLACE NAME","COUNTRY CODE","AREA CODE","AREA SEQUENCE NUMBER","TYPE","LATITUDE DECIMAL","LONGITUDE DECIMAL","ADMIRALTY CHART","UNLOCODE","PRINCIPAL FACILITIES","PORT AUTHORITY","RECORD LAST UPDATED"
1,"Gotland Is.","SWE","SCN",631,"L",57.5,18.55,"","SE ","","","04/07/2017"
2,"Middelburg","NLD","NEU",403,"P",51.5,3.6167,"120","NL MID","QYG","Gemeente Middlesburg dienst Stadesbeheer","12/07/2017"
3,"Claxton Bay","TTO","CAR",11,"P",10.3506,-61.4628,"","TT CXB","","","20/10/2016"
4,"Great Lakes","","CAN",169,"W",,,""," ","","","26/07/2016"
5,"Minicoy","IND","IND",108,"P",8.2833,73.0667,"","IN MCI","","","18/10/2017"
6,"Fowey Roads","GBR","UKE",130,"A",50.3323,-4.6347,"","GB ","","","30/10/2015"
7,"Falkenberg","SWE","SCN",592,"P",56.8972,12.4897,"874","SE FAG","YGCRBDA","Falkenbergs Terminal AB","04/07/2017"
8,"Jiangmen","CHN","CHI",114,"P",22.6667,113.0833,"-","CN JMN","GC","Jiangmen International Container Terminals","13/11/2017"
9,"Siorapaluk","GRL","SCN",1134,"P",77.7833,-70.7,"","GL SPK","","","12/09/2017"
10,"Kaafjord","NOR","SCN",90,"P",69.5833,20.5167,"","NO KAF","","","10/08/2015"
11,"Oaze Deep Anch.","GBR","UKE",21,"A",51.5,1.0167,"","GB ","","","28/06/2012"
12,"Torquay","GBR","UKE",117,"P",50.45,-3.5333,"","GB TOR","","","29/08/2012"
13,"Bressay","GBR","UKE",560,"P",60.145,-1.1106,"","GB ","","","22/11/2017"
14,"Halvorshavn","NOR","SCN",500,"P",59.5833,10.6167,"","NO HAN","","","04/07/2017"
15,"Houston(CAN)","CAN","USP",149,"P",54.4,-126.65,"","CA ","","","20/12/2017"
16,"Montego Bay","JAM","CAR",181,"P",18.4619,-77.9344,"464","JM MBJ","PGCRLBA","Port Authority of Jamaica","21/07/2017"
17,"Boca Chica","DOM","CAR",142,"P",18.445,-69.5841,"467","DO BCC","GCBA","Autoridad Portuaria Dominicana (APORDOM)","21/07/2017"
18,"Bahia Honda","CUB","CAR",216,"P",22.9667,-83.1667,"-","CU BHO","G","Port Authority of Bahia Honda","21/07/2017"
19,"Rogers City","USA","CAN",281,"P",45.4,-83.8333,"","US RCY","","","26/07/2016"
20,"Omaezaki","JPN","JPN",195,"P",34.6,138.2333,"JP80","JP OMZ","YGBT","Port & Harbour Section of Shizuoka Prefecture","13/04/2011"
21,"Bahia Blanca","ARG","SAA",44,"P",-38.7761,-62.2869,"3755","AR BHI","PQYGBDA","Consorcio de Gestion del Puerto de Bahia Blanca","31/10/2017"
22,"Corpus Christi light. area","USA","USG",8,"O",,,"","US OCT","","","22/03/2017"
23,"Black Sea","","BLK",24,"W",,,""," ","","","17/12/2013"
24,"Tuticorin","IND","IND",137,"P",8.8,78.1833,"","IN TUT","","","18/10/2017"
25,"Pascagoula","USA","USG",182,"P",30.35,-88.5667,"3841","US PGL","PQYGRBDTA","Port of Pascagoula","15/09/2017"
26,"Higham Bight","GBR","UKE",7,"W",,,"","GB ","","","11/06/2007"
27,"Eidfjord","NOR","SCN",372,"P",60.4667,7.0667,"","NO EDF","","","25/01/2017"
28,"Marina di Carrara","ITA","SEU",142,"P",44.0397,10.0402,"118","IT MDC","YGCRBTA","Autorita Portuale di Marina di Carrara","07/07/2016"
29,"Trondheimsfjord","NOR","SCN",181,"W",63.5,10.4667,"","NO ","","","14/04/2016"
30,"Kristinehamn","SWE","SCN",578,"P",59.3167,14.1167,"-","SE KHN","PQYGBTA","Vanerhamn AB","04/07/2017"
31,"Sri Lanka","LKA","IND",117,"Z",,,"","LK ","","","18/10/2017"
32,"Queens Channel Anch.","GBR","UKE",28,"A",51.45,1.2167,"","GB ","","","28/06/2012"
33,"Rochester","GBR","UKE",42,"P",51.3875,.5097,"1834/1835","GB RCS","YGBA","","28/06/2012"
34,"Oslebshausen","DEU","NEU",65,"P",53.1333,8.7333,"","DE OAS","","","29/02/2012"
35,"Principe Is.","STP","WAF",179,"P",1.65,7.45,"","ST PCP","","","08/11/2017"
36,"Bitter Lakes","EGY","NAF",14,"W",30.3333,32.3833,"","EG ","","","13/11/2014"
37,"Rochester(NY)","USA","CAN",192,"P",43.2833,-77.6,"-","US ROC","","","25/09/2017"
38,"Sognefjord","NOR","SCN",299,"W",,,"","NO ","","","25/01/2017"
39,"Harriet Harbour","CAN","USP",145,"P",52.3,-131.2167,"","CA HAR","","","20/12/2017"
40,"River Amazon","","SAA",280,"W",,,""," ","","","31/10/2017"
41,"Kvellandsgrunnen Anch.","NOR","SCN",437,"A",58.2333,6.6333,"","NO ","","","04/07/2017"
42,"Immingham","GBR","UKE",742,"P",53.6306,-.1902,"3497/1188","GB IMM","PQYGCRBTA","Associated British Ports","03/01/2018"
43,"Mazatlan","MEX","CAM",30,"P",23.1833,-106.4333,"42","MX MZT","PYGCRLBTA","Administracion Portuaria Integral de Mazatlan S.A. de C.V.","07/02/2012"
45,"Kawauchi","JPN","JPN",36,"P",41.1667,141,"","JP KAW","","","11/06/2007"
46,"Iroquois Lock","USA","CAN",160,"C",44.8333,-75.3167,"","US ","","","26/07/2016"
47,"Providence","USA","USA",166,"P",41.8056,-71.4019,"2731","US PVD","PQYGRBTA","ProvPort","15/11/2016"
48,"Friedrichstadt","DEU","NEU",17,"P",54.3833,9.0833,"","DE FRI","","","11/06/2007"
49,"Guernsey","GBR","UKE",155,"P",49.4553,-2.5364,"","GB GCI","","","15/11/2016"
50,"Kozhikode","IND","IND",94,"P",11.2667,75.7667,"","IN CCJ","","","18/10/2017"
51,"Douarnenez","FRA","NEU",586,"P",48.1,-4.3333,"","FR DRZ","","","18/09/2017"
52,"Lahad Datu","MYS","SEA",407,"P",5.0239,118.3494,"1680","MY LDU","PQYGB","Sabah Ports Sendirian Berhad","13/02/2018"
53,"Grundartangi","ISL","SCN",1296,"P",64.35,-21.7833,"2734","IS GRT","YGCBTA","Associated Icelandic Ports","12/09/2017"
54,"Marzamemi","ITA","SEU",237,"P",36.75,15.1167,"","IT ","","","07/07/2016"
55,"Favignana","ITA","SEU",226,"P",37.9311,12.3284,"","IT FAV","","","07/07/2016"
56,"Kongsdal","DNK","SCN",1090,"P",56.6833,10.0667,"2108","DK KON","YGRBTA","Kongsdal Havn","12/09/2017"
57,"Saitozaki","JPN","JPN",322,"P",33.6333,130.35,"","JP STZ","","","30/05/2012"
59,"Panarukan","IDN","SEA",213,"P",-7.7,113.9333,"946","ID PRN","GT","Port Administrator","13/02/2018"
60,"Lewisporte","CAN","CAN",438,"P",49.25,-55.05,"","CA LWP","","","07/06/2017"
61,"Douarnenez Bay","FRA","NEU",587,"W",48.1667,-4.4333,"","FR ","","","18/09/2017"
62,"Liljeholmsviken","SWE","SCN",675,"P",59.3167,18,"","SE LMS","","","04/07/2017"
63,"Baltic USSR","SUN","SCN",826,"L",,,"","SU ","","","04/07/2017"
64,"Amsterdam-Rhine Canal","NLD","NEU",204,"C",,,"","NL ","","","04/11/2010"
65,"Port Jefferson","USA","USA",143,"P",40.95,-73.0667,"2754","US PTJ","PT","Tosco Pipeline Company","15/11/2016"
66,"Lancaster","GBR","UKE",263,"P",54,-2.85,"","GB LAN","","","18/10/2013"
67,"Foveaux Strait","NZL","AUS",314,"W",-46.6698,168.1781,"","NZ ","","","08/01/2018"
68,"Zackenberg","GRL","SCN",1213,"P",74.4667,-20.6333,"","GL ZBG","","","12/09/2017"
69,"Ras Budran Terminal","EGY","RED",39,"T",28.9333,33.1333,"2132","EG BTA","PA","Suez Oil Company (SUCO)","05/04/2012"
70,"Warrenpoint","GBR","UKE",301,"P",54.1014,-6.2572,"2800","GB WPT","QYGCRBTA","Warrenpoint Harbour Authority","15/11/2016"
71,"Kushimoto","JPN","JPN",173,"P",33.4667,135.7833,"","JP KUJ","","","19/02/2010"
72,"Gloucester(GBR)","GBR","UKE",183,"P",51.8667,-2.2167,"1166","GB GLO","","","29/08/2012"
73,"St. Nazaire","FRA","NEU",608,"P",47.2803,-2.2019,"2985","FR SNR","PYGCRBDTA","Grand Port Maritime de Nantes-St.Nazaire","18/09/2017"
74,"Stratoni","GRC","SEU",557,"P",40.5167,23.85,"","GR STI","","","07/07/2016"
75,"Mechelen","BEL","NEU",443,"P",51.0333,4.4667,"","BE ECH","","","20/07/2011"
76,"Yaroslavl","RUS","SCN",841,"P",57.5667,39.8667,"","RU IAR","","","04/07/2017"
77,"Farquhar Is.","SYC","EAF",100,"L",-10.1667,51.1667,"","SC ","","","05/01/2016"
78,"Killingholme","GBR","UKE",741,"P",53.6667,-.2333,"","GB KGH","","","03/01/2018"
79,"Norrsundet","SWE","SCN",696,"P",60.95,17.1667,"2296","SE NOT","YGBT","Norrsundets Stuveri AB","04/07/2017"
80,"Hjalteyri","ISL","SCN",1257,"P",65.85,-18.2,"","IS HJA","","","12/09/2017"
81,"Black Deep Anch.","GBR","UKE",26,"A",51.6333,1.35,"","GB ","","","28/06/2012"
82,"Gloucester(USA)","USA","USA",105,"X",,,"","US ","","","01/08/2016"
83,"Iddefjord","SWE","SCN",515,"W",59.0711,11.3914,"","SE ","","","04/07/2017"
84,"Tabangao","PHL","SEA",530,"P",13.7167,121.05,"","PH TBG","","","13/02/2018"
85,"Gjevingstangholmen","NOR","SCN",465,"P",58.65,9.1333,"","NO GHN","","","04/07/2017"
86,"Nieuw Nickerie","SUR","SAA",327,"P",5.95,-57,"99","SR ICK","PGBA","Maritime Authority Suriname (MAS)","31/10/2017"
87,"Gillingham","GBR","UKE",44,"P",51.3864,.5444,"","GB GLL","","","15/08/2013"
88,"Ardrishaig","GBR","UKE",449,"P",56,-5.4333,"2320/2326","GB ASG","YGA","Ardrishaig Harbour","05/06/2017"
89,"Colchester","GBR","UKE",776,"P",51.8833,.9167,"3741","GB COL","","","03/01/2018"
90,"Apapa-Lagos","NGA","WAF",108,"P",6.4383,3.3886,"2812/1384","NG LOS","PQYGCRBDTA","Nigerian Ports Authority","19/06/2017"
91,"Oceanside","USA","USP",329,"P",33.2083,-117.3902,"","US XJX","","","20/12/2017"
92,"Gloucester(MA USA)","USA","USA",195,"P",42.6167,-70.6667,"2487","US GLO","GRLBTA","Gloucester Marine Terminal","01/08/2016"
93,"Kollafjordur","FRO","SCN",1306,"P",62.1167,-6.9,"","FO KOL","","","25/09/2017"
94,"Hokkaido","JPN","JPN",8,"L",,,"","JP ","","","11/06/2007"
95,"Nalunga Is.","PHL","SEA",600,"P",10.5,122.7167,"","PH NAL","","","13/02/2018"
96,"Billefjord","NOR","SCN",69,"P",70.3667,25.1,"","NO BFJ","","","10/08/2015"
97,"Guayacan","CHL","SAP",97,"P",-29.9692,-71.3506,"3080","CL GYC","YTA","Compania Minera del Pacifico S.A.","29/06/2017"
98,"Nueva Gerona","CUB","CAR",214,"P",21.9167,-82.7667,"3867","CU GER","GA","Port Authority of Nuevo Gerona","21/07/2017"
99,"Ras Bahregan Terminal","IRN","ARA",120,"T",29.7186,50.1639,"2884","IR RBA","PT","Iranian Offshore Oil Company (IOOC)","12/09/2017"
100,"Manchester(GBR)","GBR","UKE",259,"P",53.4667,-2.2833,"3478","GB MNC","PQYGBDTA","The Manchester Ship Canal Company","18/10/2013"
101,"Spesshult","SWE","SCN",563,"P",59.0667,12.9167,"","SE SST","","","04/07/2017"
102,"Aasiaat","GRL","SCN",1158,"P",68.7167,-52.8833,"-","GL JEG","GCBT","Royal Arctic Line A/S","12/09/2017"
103,"Shetland Is.","GBR","UKE",554,"L",,,"","GB TLD","","","22/11/2017"
104,"Beckingham","GBR","UKE",734,"P",53.4,-.8333,"","GB BEC","","","03/01/2018"
105,"Plaridel","PHL","SEA",661,"P",8.6167,123.7,"","PH PLA","","","13/02/2018"
106,"Ciudad del Carmen","MEX","CAM",172,"P",18.65,-91.85,"373","MX CME","GB","Administracion Portuaria Integral de Campeche S.A. de C.V.","15/11/2016"
107,"Sungei Gerong","IDN","SEA",146,"P",-2.9833,104.85,"","ID SUG","","","13/02/2018"
108,"Braunschweig","DEU","NEU",72,"P",52.25,10.5,"","DE BWE","","","23/05/2014"
109,"Glandore","IRL","UKE",327,"P",51.5667,-9.1167,"","IE GDE","","","18/10/2013"
110,"Sungei Kolak","IDN","SEA",65,"P",.8333,104.5833,"","ID SKK","","","23/05/2017"
111,"Bellingham","USA","USP",226,"P",48.75,-122.5,"4950/54","US BLI","PYGRLBTA","Port of Bellingham","20/12/2017"
112,"Belledune","CAN","CAN",99,"P",47.9167,-65.85,"4768","CA BEL","PQYGRBTA","Belledune Port Authority","26/07/2016"
113,"Qaqortoq","GRL","SCN",1184,"P",60.7167,-46.0333,"-","GL JJU","GCBT","Royal Arctic Line A/S","12/09/2017"
114,"Belle Chasse","USA","USG",103,"P",29.8544,-89.9814,"","US BCS","","","31/07/2017"
115,"Port Klang","MYS","SEA",28,"P",3,101.4,"2152/53/3945","MY PKG","PQYGCRLBDTA","Port Klang Authority","21/03/2017"
116,"Port Edward","CAN","USP",144,"P",54.2286,-130.2916,"","CA PTE","","","20/12/2017"
117,"Slemmestad","NOR","SCN",503,"P",59.7833,10.5,"","NO SLM","","","04/07/2017"
118,"Stora Sotra","NOR","SCN",346,"L",,,"","NO ","","","25/01/2017"
119,"Navlakhi","IND","IND",22,"P",22.9667,70.45,"670/682/699","IN NAV","YGT","Gujarat Maritime Board","15/03/2017"
120,"Jayapura","IDN","SEA",803,"P",-2.5333,140.7167,"3250","ID DJJ","PGCRBA","PT (Persero) Pelabuhan Indonesia IV","13/02/2018"
121,"Good Hope(USA)","USA","USG",128,"P",29.9914,-90.4006,"","US GOP","","","21/01/2015"
122,"Kongsmoen","NOR","SCN",166,"P",64.8833,12.4333,"","NO KGM","","","14/04/2016"
123,"Flekkefjord","NOR","SCN",438,"P",58.3,6.6667,"281","NO FFD","GRDA","Flekkefjord Kommune","04/07/2017"
124,"Tolagnaro","MDG","EAF",65,"P",-25.0333,47,"-","MG FTU","GBA","Port Superintendent","05/01/2016"
125,"Pertigalete","VEN","SAA",369,"P",10.25,-64.55,"","VE PRG","","","31/10/2017"
126,"Manchester(USA)","USA","USP",243,"P",47.55,-122.5333,"","US MCR","","","20/12/2017"
127,"Kvinesdal","NOR","SCN",440,"P",58.3,7,"","NO KVD","","","04/07/2017"
128,"Dernish Is.","IRL","UKE",352,"P",52.6833,-8.9167,"","IE DHI","","","18/10/2013"
129,"Abu Sultan","EGY","NAF",15,"P",30.4167,32.3,"","EG ASN","","","13/11/2014"
130,"Port Elizabeth","ZAF","EAF",25,"P",-33.9667,25.6333,"4157/4158","ZA PLZ","PYGCRLBTA","Transnet National Ports Authority","04/09/2012"
131,"Great Duck Is.","CAN","CAN",282,"L",,,"","CA ","","","26/07/2016"
132,"Katagami","JPN","JPN",137,"P",34.7167,134.2167,"","JP AGT","","","16/08/2013"
133,"Songo Songo Is.","TZA","EAF",107,"P",-8.5167,39.5,"","TZ ","","","05/01/2016"
134,"Hakodate","JPN","JPN",23,"P",41.8248,140.6806,"JP10","JP HKD","PYGCRBDTA","Hakodate Port & Airport Department, City of Hakodate","04/07/2008"
135,"Loch Ewe","GBR","UKE",498,"W",57.8133,-5.6411,"","GB ","","","05/06/2017"
136,"Lappeenranta","FIN","SCN",812,"P",61.0608,28.1795,"","FI LPP","","","04/07/2017"
137,"Milton(USA)","USA","USA",123,"P",41.6,-73.95,"","US MZG","","","01/08/2016"
138,"Vila Real de Santo Antonio","PRT","IBE",87,"P",37.1833,-7.4167,"","PT VRL","","","30/03/2016"
139,"Ras Lanuf","LBY","NAF",50,"P",30.5167,18.5667,"3343","LY RLA","PQBA","VEBA Oil Operations","06/07/2016"
140,"Vetlefjord","NOR","SCN",305,"W",,,"","NO ","","","25/01/2017"
141,"Finnfjord","NOR","SCN",81,"P",70.8167,23.0833,"","NO FJD","","","10/08/2015"
142,"Germany","DEU","SCN",926,"Z",,,"","DE ","","","12/09/2017"
143,"Helsinki","FIN","SCN",794,"P",60.1586,24.9439,"2224","FI HEL","PQYGCRLBDTA","Port of Helsinki","04/07/2017"
144,"Saaremaa Is.","EST","SCN",872,"L",58.4167,22.5,"","EE ","","","04/07/2017"
145,"Montague","CAN","CAN",82,"P",46.1667,-62.6333,"","CA MGU","","","26/07/2016"
146,"Mocimboa da Praia","MOZ","EAF",52,"P",-11.338,40.36,"","MZ MZB","","","27/08/2013"
147,"Batu Licin","IDN","SEA",459,"P",-3.45,116,"","ID BLN","","","13/02/2018"
148,"Mount Maunganui","NZL","AUS",294,"P",-37.6833,176.2333,"","NZ MMU","","","08/01/2018"
149,"Coley's Point","CAN","CAN",417,"L",47.5833,-53.25,"","CA CYP","","","26/07/2016"
150,"Isabela de Sagua","CUB","CAR",222,"P",22.95,-80.0167,"-","CU IDS","GBT","Empresa Terminales Mambisas del Centro Este","21/07/2017"
151,"Chittagong","BGD","IND",189,"P",22.322,91.8173,"84","BD CGP","PQYGCRBDTA","Chittagong Port Authority","18/10/2017"
152,"Jones Point","USA","USA",120,"L",41.2833,-73.95,"","US JP7","","","01/08/2016"
153,"Abbot Point","AUS","AUS",268,"P",-19.885,148.0781,"AUS 255","AU ABP","YT","Ports Corporation of Queensland","08/01/2018"
154,"Kastel Sucurac","HRV","SEU",379,"P",43.55,16.4333,"","HR KAS","","","07/07/2016"
155,"Watling Is.","BHS","CAR",253,"L",,,"","BS ","","","21/07/2017"
156,"West Scotland","GBR","UKE",382,"L",,,"","GB ","","","05/06/2017"
157,"Miyazaki","JPN","JPN",368,"P",31.8833,131.45,"","JP KMI","","","10/02/2015"
158,"Burntisland","GBR","UKE",659,"P",56.0575,-3.2355,"","GB BTL","","","03/01/2018"
159,"Rosfjord","NOR","SCN",446,"P",58.05,6.9833,"","NO RJD","","","04/07/2017"
160,"Westray","GBR","UKE",549,"L",59.3,-3,"","GB WRY","","","22/11/2017"
161,"Sunderland","GBR","UKE",688,"P",54.9103,-1.3661,"1935/1627","GB SUN","PQYGCBDTA","Port of Sunderland","03/01/2018"
162,"Cabo Blanco","PER","SAP",41,"P",-4.2667,-81.25,"","PE CAB","","","29/01/2014"
163,"Forno","BRA","SAA",200,"P",-22.9711,-42.0153,"3971","BR FNO","YG","Companhia Municipal da Administracao Portuaria","31/10/2017"
164,"Skibbereen","IRL","UKE",330,"P",51.55,-9.2667,"","IE SKB","","","18/10/2013"
165,"Los Organos","PER","SAP",40,"P",-4.1667,-81.1333,"","PE LOO","","","29/01/2014"
166,"Marseilles","FRA","SEU",77,"P",43.3298,5.3533,"153/151","FR MRS","PQYGCRLBDTA","Grand Port Maritime de Marseille","07/07/2016"
167,"Salalah","OMN","RED",85,"P",16.9333,54,"2896","OM SLL","PQYGCRLBTA","Port of Salalah","25/05/2017"
168,"Lucina Terminal","GAB","WAF",214,"T",-3.885,10.93,"604","GA LUC","PT","Perenco Gabon S.A.","08/11/2017"
169,"Chittagong Roads","BGD","IND",188,"A",21.925,91.3786,"","BD ","","","18/10/2017"
170,"Ceiba Hueca","CUB","CAR",204,"P",20.2167,-77.3167,"","CU CEI","","","21/07/2017"
171,"Hallstavik","SWE","SCN",689,"P",60.05,18.6,"3169","SE HAK","PGRBTA","Port of Hallstavik","04/07/2017"
172,"Bronnoysund","NOR","SCN",162,"P",65.4667,12.2167,"2310","NO BNN","LBA","Bronnoy Havn KF","14/04/2016"
173,"Glomfjord","NOR","SCN",144,"P",66.8164,13.9441,"3533","NO GLO","QYG","Yara International ASA","11/08/2015"
174,"East London","ZAF","EAF",28,"P",-33.0333,27.9167,"4162","ZA ELS","PYGCRLBDTA","Transnet National Ports Authority","15/11/2016"
175,"Grand Manan Is.","CAN","CAN",4,"L",44.7,-66.8,"","CA GMA","","","29/02/2012"
176,"New Mills","CAN","CAN",100,"P",47.95,-66.1667,"","CA NMS","","","26/07/2016"
177,"Portnockie","GBR","UKE",605,"P",57.7,-2.8667,"","GB PKN","","","03/01/2018"
178,"Pietarsaari","FIN","SCN",742,"P",63.7061,22.6969,"2300","FI PRS","PYGRTA","Port of Pietarsaari Authority","04/07/2017"
179,"Mersey Bar","GBR","UKE",230,"A",53.5333,-3.3167,"","GB ","","","29/08/2012"
180,"Oksfjord","NOR","SCN",86,"P",70.2394,22.3477,"","NO OKF","","","22/09/2015"
181,"Casablanca","MAR","NAF",129,"P",33.6069,-7.6008,"860/861","MA CAS","PQYGCRLBDTA","Office d'Exploitation des Ports (ODEP)","06/07/2016"
182,"Cambridge","USA","USA",86,"P",38.5667,-76.0667,"","US CMB","","","01/08/2016"
184,"Meulaboh","IDN","SEA",118,"P",4.127,96.1317,"","ID MEQ","","","13/02/2018"
185,"Jebel Ali","ARE","ARA",40,"P",24.9902,55.0608,"3739","AE JEA","PQYGCRBTA","DP World FZE","12/09/2017"
186,"Caribbean","","CAR",2,"W",,,""," ","","","11/06/2007"
187,"La Pallice","FRA","NEU",627,"P",46.1553,-1.2217,"2743","FR LPE","PYGCRLBDTA","Grand Port Maritime de La Rochelle","18/09/2017"
188,"Oranjemund","NAM","EAF",6,"P",-28.5667,16.3667,"","NA OMD","","","19/08/2013"
189,"Khabarovsk","RUS","CHI",522,"P",48.5,135.1667,"","RU KHV","","","13/11/2017"
190,"Oranjestad","ABW","SAA",404,"P",12.5214,-70.0425,"1312","AW ORJ","GCRLBTA","Aruba Ports Authority N.V.","31/10/2017"
191,"Astipalia","GRC","SEU",512,"P",36.5333,26.3667,"","GR ","","","07/07/2016"
192,"Dominican Republic","DOM","CAR",131,"Z",,,"","DO ","","","21/07/2017"
193,"Puerto Madryn","ARG","SAA",37,"P",-42.7386,-65.0472,"3067","AR PMY","YGCLBA","Administracion Portuaria de Puerto Madryn","31/10/2017"
194,"Cayo Rio","MEX","CAM",166,"X",,,"","MX ","","","29/09/2015"
195,"Blang Lancang","IDN","SEA",111,"P",5.2167,97.1031,"3574","ID BLL","PQGBA","Pertamina PKK Blang Lancang","13/02/2018"
196,"English Channel","","UKE",64,"W",,,""," ","","","28/06/2012"
197,"Stjernoy","NOR","SCN",83,"L",,,"","NO STY","","","10/08/2015"
198,"Lawe-Lawe Terminal","IDN","SEA",446,"T",-1.45,116.75,"3014","ID LLA","P","Union Oil Company of Indonesia","13/02/2018"
199,"Aux Cayes","HTI","CAR",156,"P",18.1833,-73.7333,"","HT ","","","21/07/2017"
200,"Redbridge","GBR","UKE",97,"P",50.9333,-1.4667,"","GB RBG","","","29/08/2012"
201,"Nusfjord","NOR","SCN",129,"P",68.0333,13.35,"","NO NJD","","","10/08/2015"
202,"Bomlafjord","NOR","SCN",359,"W",,,"","NO ","","","25/01/2017"
203,"Bintuhan","IDN","SEA",135,"P",-4.8167,103.3667,"","ID BHN","","","13/02/2018"
204,"Sandefjord","NOR","SCN",483,"P",59.1333,10.2333,"3499/3010","NO SAD","PQGRLBTA","Sandefjord Havnevesen","04/07/2017"
205,"Gothenburg","SWE","SCN",543,"P",57.7,11.95,"","SE GOT","PQYGCRLBDTA","Port of Gothenburg AB","04/07/2017"
206,"Puerto Miranda","VEN","SAA",421,"P",10.7633,-71.5514,"1524","VE MIV","PQBT","Petroleos de Venezuela S.A. (PDVSA)","31/10/2017"
207,"Puerto Quetzal","GTM","CAM",52,"P",13.93,-90.7902,"659/1946","GT PRQ","QYGCRLBTA","Empresa Portuaria Quetzal","10/02/2015"
208,"Puerto Quellon","CHL","SAP",130,"P",-43.15,-73.6167,"","CL PTE","","","08/11/2017"
209,"Dyrafjord","ISL","SCN",1277,"W",,,"","IS ","","","12/09/2017"
210,"Cherry Point","USA","USP",228,"P",48.8667,-122.75,"","US CPO","","","20/12/2017"
211,"Holland(MI USA)","USA","CAN",338,"P",42.7833,-86.2167,"","US HLM","","","26/07/2016"
212,"Scrabster","GBR","UKE",523,"P",58.6167,-3.5333,"1462","GB SCR","PGRBA","Scrabster Harbour Trust","05/06/2017"
213,"White Sea","RUS","SCN",40,"W",,,"","RU ","","","07/02/2014"
214,"Uglegorsk","RUS","CHI",558,"P",49.0667,142.0167,"2161","RU UGL","YG","Port of Uglegorsk Authority","13/11/2017"
215,"Castellammare del Golfo","ITA","SEU",220,"P",38.0333,12.8833,"","IT CTR","","","07/07/2016"
216,"Balearic Is.","ESP","SEU",25,"L",,,"","ES ","","","15/06/2015"
217,"Bildudalur","ISL","SCN",1279,"P",65.6833,-23.6,"","IS BIL","","","12/09/2017"
218,"Khor al Zubair","IRQ","ARA",100,"P",30.1925,47.8852,"","IQ KAZ","","","12/09/2017"
219,"Fremantle","AUS","AUS",159,"P",-32.0592,115.7508,"AUS 113/112","AU FRE","PYGCRLBTA","Fremantle Ports","08/01/2018"
220,"La Romana","DOM","CAR",139,"P",18.4167,-68.95,"467","DO LRM","YGCLTA","Autoridad Portuaria Dominicana (APORDOM)","21/07/2017"
221,"Charlottetown(CAN)","CAN","CAN",78,"P",46.2167,-63.1167,"1651","CA CHA","PYGLBA","Charlottetown Harbour Authority Inc","26/07/2016"
222,"Mina Abdulla","KWT","ARA",91,"P",29.0405,48.1742,"1223/3773","KW MIB","PBA","Kuwait National Petroleum Company","12/09/2017"
223,"Tanjong Manis","MYS","SEA",359,"P",2.1497,111.3375,"1948","MY TMI","YGRB","Rajang Port Authority","13/02/2018"
224,"Rangiroa Is.","PYF","AUS",395,"L",-15.1253,-147.6452,"","PF ","","","08/01/2018"
225,"Narsarsuaq","GRL","SCN",1182,"P",61.15,-45.4333,"-","GL UAK","PGTA","Pilersuisoq A/S","12/09/2017"
226,"Khor al Amaya Terminal","IRQ","ARA",107,"T",29.7806,48.8064,"1265/1235","IQ KHA","PT","State Oil Marketing Organisation","12/09/2017"
227,"Tacloban","PHL","SEA",586,"P",11.2494,125.0003,"4475","PH TAC","PYGCRBA","Philippine Ports Authority","13/02/2018"
228,"Fishguard Bay","GBR","UKE",204,"W",,,"","GB ","","","29/08/2012"
229,"Stjordal","NOR","SCN",191,"P",63.4667,10.8844,"","NO STJ","","","05/10/2017"
230,"Quraiyah","SAU","ARA",74,"P",26.1972,50.4628,"","SA ","","","12/09/2017"
231,"Fishguard","GBR","UKE",205,"P",52.0167,-4.9833,"1484","GB FIS","GCRBTA","Stena Line Ports Limited","29/08/2012"
232,"Balikpapan","IDN","SEA",444,"P",-1.2667,116.8167,"2639","ID BPN","PYGCBTA","PT (Persero) Pelabuhan Indonesia IV","13/02/2018"
233,"Pozzuoli","ITA","SEU",182,"P",40.8273,14.1203,"916","IT POZ","PGBA","Capitaneria di Porto di Pozzuoli","07/07/2016"
234,"Portland(ME USA)","USA","USA",201,"P",43.6575,-70.2528,"2488","US PWM","PYGCRLBTA","City of Portland Dept. of Ports & Transportation","01/08/2016"
235,"La Canal","ESP","SEU",28,"P",38.8333,1.3833,"","ES LCL","","","15/06/2015"
236,"Celukan Bawang","IDN","SEA",231,"P",-8.1833,114.8333,"946","ID CEB","GA","Port Administrator","13/02/2018"
237,"Port St. Joe","USA","USG",201,"P",29.8167,-85.3,"3148","US PSJ","PYGCA","Port St. Joe Port Authority","15/09/2017"
238,"Portland(OR USA)","USA","USP",264,"P",45.5667,-122.7333,"2849","US PDX","PQYGCRLBDTA","Port of Portland","20/12/2017"
239,"Magheramorne","GBR","UKE",289,"P",54.8167,-5.7667,"","GB MGO","","","18/10/2013"
240,"Skerjafjordur","ISL","SCN",1219,"W",,,"","IS KJF","","","12/09/2017"
241,"Pangkalbalam","IDN","SEA",165,"P",-2.1,106.1667,"1788","ID PGX","PGCBTA","PT (Persero) Pelabuhan Indonesia II","13/02/2018"
242,"Bo'ness","GBR","UKE",670,"P",56.0167,-3.6,"","GB BON","","","03/01/2018"
243,"Oslofjord","NOR","SCN",484,"W",59.35,10.5833,"","NO ","","","04/07/2017"
244,"Wondelgem","BEL","NEU",483,"P",51.0833,3.7167,"","BE WDG","","","20/07/2011"
245,"Vik(Sognefjord)","NOR","SCN",316,"P",61.0833,6.5833,"","NO VIS","","","25/01/2017"
246,"Dahikan Bay","PHL","SEA",548,"W",14.3167,122.6,"","PH DCB","","","13/02/2018"
247,"Gregorio Bay","CHL","SAP",147,"W",,,"","CL ","","","08/11/2017"
248,"Gregorio","CHL","SAP",148,"P",-52.6333,-70.1833,"1693","CL BAG","PBT","Empresa Portuaria Austral","08/11/2017"
249,"Christmas Is.","CXR","SEA",238,"L",,,"","CX XCH","","","13/02/2018"
250,"Manzanillo(CUB)","CUB","CAR",205,"P",20.35,-77.1167,"-","CU MZO","PYGTA","Empresa Terminales Mambisas del Oriente","21/07/2017"
251,"Patchogue","USA","USA",136,"P",40.7667,-73.0167,"","US PCP","","","01/08/2016"
252,"Bjornefjord","NOR","SCN",350,"W",,,"","NO ","","","25/01/2017"
253,"Belfast","GBR","UKE",293,"P",54.6106,-5.9211,"1752","GB BEL","PQYGCRLBDTA","Belfast Harbour Commissioners","15/11/2016"
254,"Barletta","ITA","SEU",276,"P",41.3167,16.2667,"1443","IT BLT","PYGBTA","Capitaneria di Porto di Barletta","07/07/2016"
255,"Archer Point","AUS","AUS",276,"L",-15.6,145.3333,"","AU APT","","","08/01/2018"
256,"Sandy Point(TTO)","TTO","CAR",25,"P",11.1333,-60.8667,"","TT SYP","","","20/10/2016"
257,"Ruthenstrom","DEU","NEU",26,"P",53.7333,9.4,"","DE RSM","","","29/02/2012"
258,"South Nelson","CAN","CAN",91,"P",46.9833,-65.55,"","CA SNN","","","26/07/2016"
259,"Cardinal","CAN","CAN",161,"P",44.7833,-75.3333,"","CA CDN","","","26/07/2016"
260,"San Jorge Is.","AZO","IBE",108,"P",38.6667,-28.05,"","PT ","","","30/03/2016"
261,"Stordoy","NOR","SCN",354,"L",,,"","NO ","","","25/01/2017"
262,"Manzanillo","","CAM",36,"X",,,""," ","","","07/02/2012"
263,"La Maddalena","ITA","SEU",106,"P",41.2167,9.4,"1212","IT MDA","GBDT","Capitaneria di Porto di La Maddalena","07/07/2016"
264,"Escondido","MEX","CAM",43,"P",15.8333,-97.0833,"","MX END","","","10/02/2015"
265,"Drapetzona","GRC","SEU",493,"P",37.9494,23.617,"","GR DPA","","","07/07/2016"
266,"Natsek Cove","GRL","SCN",1196,"W",60.05,-43.1167,"","GL ","","","12/09/2017"
267,"Manzanillo(DOM)","DOM","CAR",132,"P",19.7167,-71.75,"463","DO MAN","GCBA","Autoridad Portuaria Dominicana (APORDOM)","21/07/2017"
268,"Key West","USA","USG",214,"P",24.5558,-81.8039,"2881","US EYW","PQLBDTA","City of Key West","15/09/2017"
269,"Country Harbour","CAN","CAN",48,"P",45.2167,-61.7333,"","CA COH","","","26/07/2016"
270,"Whitegate","IRL","UKE",320,"P",51.8333,-8.25,"","IE WHI","","","18/10/2013"
271,"Stinica","HRV","SEU",368,"P",44.7167,14.9,"","HR VSC","","","07/07/2016"
272,"Punta Quilla","ARG","SAA",27,"P",-50.1178,-68.4125,"-","AR PQU","PGBA","Unidad Ejecutora Portuaria de Santa Cruz","31/10/2017"
273,"Manzanillo(MEX)","MEX","CAM",37,"P",19.05,-104.3333,"516/1979","MX ZLO","PQYGCBDTA","Administracion Portuaria Integral de Manzanillo S.A. de C.V.","10/02/2015"
274,"Margarita Is.","VEN","SAA",362,"L",11,-64.1667,"","VE IMA","","","31/10/2017"
275,"Belomorsk","RUS","SCN",51,"P",64.5364,34.8331,"","RU BEM","","","28/12/2017"
276,"Narciso Terminal","ITA","SEU",224,"T",,,"","IT ","","","07/07/2016"
277,"Karlskrona","SWE","SCN",617,"P",56.1667,15.6,"2857","SE KAA","PGRBDTA","Karlskrona Hamn","04/07/2017"
278,"Flushing East","NLD","NEU",404,"P",51.45,3.6667,"","NL SHV","","","07/03/2012"
279,"Cabo Negro","CHL","SAP",142,"P",-52.95,-70.7833,"1694","CL CNX","QBT","Empresa Portuaria Austral","08/11/2017"
280,"Villa Constitucion","ARG","SAA",75,"P",-33.2236,-60.332,"1982A","AR VCN","YGBTA","Puerto Villa Constitucion S.R.L.","31/10/2017"
281,"Huahine Is.","PYF","AUS",394,"L",-16.7556,-151.0044,"","PF HUH","","","08/01/2018"
282,"Pastelillo","CUB","CAR",226,"P",21.55,-77.2167,"","CU PAS","","","21/07/2017"
283,"Puerto del Rosario","CNI","IBE",133,"P",28.4997,-13.8558,"1870","ES FUE","GCRA","Autoridad Portuaria de Las Palmas","30/03/2016"
284,"Quarrayah","SAU","ARA",70,"P",25.8611,50.1206,"","SA ","","","12/09/2017"
285,"Ramsgate","GBR","UKE",59,"P",51.3317,1.4181,"1827/1828","GB RMG","GRBTA","Port of Ramsgate","25/01/2013"
286,"Uruguay","URY","SAA",106,"Z",,,"","UY ","","","31/10/2017"
287,"El Tablazo","VEN","SAA",422,"P",10.7606,-71.5386,"1525","VE ETV","QYGCBT","Petroquimica de Venezuela SA (PEQUIVEN)","31/10/2017"
288,"Koblenz","DEU","NEU",338,"P",50.3333,7.5833,"","DE KOB","","","23/05/2014"
289,"Hunterston","GBR","UKE",403,"P",55.7461,-4.8675,"1867","GB HST","YBA","Clydeport Plc","05/06/2017"
290,"River Tapajos","BRA","SAA",288,"W",,,"","BR ","","","31/10/2017"
291,"Dongshan","CHN","CHI",183,"P",23.7472,117.5097,"1767","CN DSN","YGCB","Dongshan Port Authority","13/11/2017"
292,"Cape Hanasaki","JPN","JPN",33,"L",,,"","JP HNK","","","29/02/2012"
293,"Nykobing(Mors)","DNK","SCN",1114,"P",56.8,8.8667,"427","DK NYM","YGBA","Nykobing Mors Havnevesen","12/09/2017"
294,"Arjuna Terminal","IDN","SEA",191,"T",-5.8833,107.75,"1066/1653","ID AJN","PQ","Atlantic Richfield Indonesia Incorporated","13/02/2018"
295,"Newport","GBR","UKE",186,"P",51.5667,-2.9833,"1176","GB NPT","YGCRBDA","Associated British Ports","29/08/2012"
296,"Newport(RI)","USA","USA",176,"P",41.485,-71.315,"","US NPT","","","23/12/2016"
297,"Boylston","CAN","CAN",56,"P",45.45,-61.5167,"","CA BYN","","","26/07/2016"
298,"Kingston(JAM)","JAM","CAR",172,"P",17.9889,-76.8236,"454","JM KIN","PYGCRLBDTA","Port Authority of Jamaica","21/07/2017"
299,"San Felix","VEN","SAA",342,"P",8.3667,-62.6667,"3322","VE SFX","YGB","Port Authority of San Felix","31/10/2017"
300,"Kingston(USA)","USA","USA",126,"P",41.8667,-73.9667,"","US KGT","","","01/08/2016"
301,"Khor Fakkan Anch.","ARE","ARA",19,"A",25.35,56.4833,"","AE ","","","12/09/2017"
302,"Little Stirrup Cay","BHS","CAR",266,"L",25.8173,-77.9389,"","BS ","","","21/07/2017"
303,"Port Vila","VUT","AUS",403,"P",-17.75,168.3,"1494","VU VLI","PQGCRLBTA","Ports & Marine Department","08/01/2018"
304,"Delaware","USA","USA",89,"L",,,"","US DEL","","","01/08/2016"
305,"Dalhousie","CAN","CAN",101,"P",48.0667,-66.3667,"4769","CA DHS","PYGBA","Port of Dalhousie Incorporated","25/09/2017"
306,"Huangpu","CHN","CHI",128,"P",23.0975,113.4242,"","CN HUA","","","13/11/2017"
307,"Grebbestad","SWE","SCN",521,"P",58.6833,11.25,"","SE GRE","","","04/07/2017"
308,"Stony Point","USA","USA",117,"P",41.2333,-73.9667,"","US YOT","","","01/08/2016"
309,"Milwaukee","USA","CAN",320,"P",43.05,-87.8667,"-","US MKE","PQYGCRBTA","Port of Milwaukee","15/11/2016"
310,"Hekkelstrand","NOR","SCN",134,"P",68.4,16.8333,"","NO ","","","10/08/2015"
311,"Vancouver(CAN)","CAN","USP",214,"P",49.298,-123.0877,"4962/4963/4964/4965","CA VAN","PQYGCRLBDTA","Port Metro Vancouver","20/12/2017"
312,"Gosport","GBR","UKE",81,"P",50.8,-1.1167,"","GB GOS","","","29/08/2012"
313,"Kastrup","DNK","SCN",999,"P",55.6333,12.65,"","DK KTP","","","12/09/2017"
314,"Conneaut","USA","CAN",225,"P",41.9667,-80.5667,"-","US CDY","YGBTA","Conneaut Port Authority","26/07/2016"
315,"Takasago","JPN","JPN",147,"P",34.7333,134.8,"","JP TSG","","","16/11/2007"
316,"Brenton Reef","USA","USA",160,"W",,,"","US ","","","01/08/2016"
317,"Nova Scotia","CAN","CAN",14,"L",,,"","CA ","","","26/07/2016"
318,"Rifshofn","ISL","SCN",1290,"P",64.9211,-23.8144,"","IS RHN","","","12/09/2017"
319,"Allyns Point","USA","USA",157,"P",41.4333,-72.0667,"","US ","","","01/08/2016"
320,"Westwego","USA","USG",121,"P",29.9167,-90.15,"","US WWO","","","21/01/2015"
321,"Tarbert","GBR","UKE",450,"P",55.8667,-5.4333,"","GB TAB","","","05/06/2017"
322,"Hamriyah","ARE","ARA",39,"P",25.4725,55.4911,"3410","AE HAM","PQYTA","BP Sharjah Oil Company","12/09/2017"
323,"Clarks Point","USA","USP",55,"L",58.8333,-158.55,"","US CLP","","","12/07/2017"
324,"Grimsby","GBR","UKE",744,"P",53.5756,-.0778,"1188","GB GSY","YGCRBA","Associated British Ports","03/01/2018"
325,"Obi Is.","IDN","SEA",284,"L",-1.5,127.6667,"","ID OBI","","","13/02/2018"
326,"Santa Maria(CPV)","CPV","WAF",11,"P",16.5833,-22.9167,"","CV SAM","","","08/07/2013"
327,"Madre de Deus","BRA","SAA",241,"P",-12.75,-38.6167,"545","BR MDD","PQBTA","Petrobras Transporte S.A.","31/10/2017"
328,"Monterey","USA","USP",305,"P",36.6,-121.8833,"","US MZY","","","20/12/2017"
329,"Cardigan Bay","GBR","UKE",206,"W",,,"","GB ","","","29/08/2012"
330,"Cartagena(PHL)","PHL","SEA",604,"P",9.8,122.3833,"","PH ","","","13/02/2018"
331,"San Clemente","USA","USP",328,"P",33.4333,-117.6,"","US XMO","","","20/12/2017"
332,"Cowes Roads","GBR","UKE",87,"A",50.75,-1.2833,"","GB ","","","30/10/2015"
333,"Cartagena(ESP)","ESP","SEU",17,"P",37.6019,-.98,"1189/1194","ES CAR","PQYGCRBDTA","Autoridad Portuaria de Cartagena","29/04/2009"
334,"Bheemunipatnam","IND","IND",159,"P",17.9,83.45,"","IN BHM","","","18/10/2017"
335,"Kavaratti","IND","IND",105,"P",10.5667,72.6333,"","IN ","","","18/10/2017"
336,"North Pacific","","AUS",2,"W",,,""," ","","","11/06/2007"
337,"Grand Cayman","CYM","CAR",191,"L",19.3167,-81.2333,"","KY GCM","","","21/07/2017"
338,"La Estacada","VEN","SAA",423,"P",10.7167,-71.5333,"1517","VE LEC","","","31/10/2017"
339,"Dunvegan","GBR","UKE",487,"P",57.45,-6.5833,"","GB DVN","","","05/06/2017"
340,"River Nimpkish","CAN","USP",158,"W",50.5667,-126.9667,"","CA ","","","20/12/2017"
341,"Vanuatu","VUT","AUS",400,"Z",,,"","VU ","","","08/01/2018"
342,"Cape San Antonio","ARG","SAA",51,"L",-36.3167,-56.7667,"","AR CSA","","","31/10/2017"
343,"Bayport","USA","USG",30,"P",29.6167,-95.0167,"","US BPZ","","","21/01/2015"
344,"Skjoldungen","GRL","SCN",1197,"P",63.2333,-41.45,"","GL SJN","","","12/09/2017"
345,"Sea Island(KWT)","KWT","ARA",95,"P",29.1181,48.2914,"","KW ","","","12/09/2017"
346,"Tolitoli","IDN","SEA",346,"P",1.038,120.8089,"","ID TLI","","","13/02/2018"
347,"Moreton Bay","AUS","AUS",249,"W",-27.25,153.25,"","AU ","","","08/01/2018"
348,"Mollendo","PER","SAP",75,"P",-17.0167,-72.0333,"3090","PE MLQ","PBTA","The Harbour Master","29/01/2014"
349,"Budapest","HUN","BLK",104,"P",47.5,19.0333,"","HU BUD","","","08/09/2015"
350,"Sabangan Bay","IDN","SEA",477,"W",-3.2833,113.3833,"","ID ","","","13/02/2018"
351,"Irish Sea","","UKE",229,"W",,,""," ","","","29/08/2012"
352,"West Indies","","CAR",1,"L",,,""," ","","","11/06/2007"
353,"St. Andrews(CAN)","CAN","CAN",8,"P",45.0667,-67.05,"352","CA SAD","","","26/07/2016"
354,"Abu Rudeis","EGY","RED",38,"P",28.9,33.1667,"","EG AUE","","","11/06/2007"
355,"Darby Point","IRL","UKE",366,"L",,,"","IE ","","","05/06/2017"
356,"North Norway","NOR","SCN",5,"L",,,"","NO ","","","11/06/2007"
357,"Achipur","IND","IND",175,"P",22.4667,88.1333,"","IN APR","","","18/10/2017"
358,"Stokkseyri","ISL","SCN",1230,"P",63.8333,-21.0833,"","IS STK","","","12/09/2017"
359,"Dneprobugskiy","UKR","BLK",128,"P",46.7706,31.9425,"2203","UA DNB","YGT","Dneprobugskiy Sea Port of Nikolaev Alumina Plant Private Joint Stock Company","15/11/2016"
360,"Geisum Terminal","EGY","RED",20,"T",27.6333,33.7167,"2375","EG GEI","P","The Egyptian General Petroleum Corporation","06/08/2009"
361,"N.E. Coast","GBR","UKE",676,"L",,,"","GB ","","","03/01/2018"
362,"Nouadhibou","MRT","WAF",27,"P",20.9,-17.05,"1661/1699","MR NDB","PQYGCRBTA","Port Autonome de Nouadhibou","08/07/2013"
363,"Waterford","IRL","UKE",316,"P",52.1756,-6.9825,"2046","IE WAT","PQYGCRBTA","Port of Waterford Company","18/10/2013"
364,"Gan Is.","MDV","IND",115,"P",-.6833,73.1667,"","MV GAN","","","18/10/2017"
365,"Roberts Bank","CAN","USP",222,"P",49.0411,-123.1086,"","CA ","","","20/12/2017"
366,"Lake Timsah","EGY","NAF",13,"W",30.5667,32.3,"","EG ","","","13/11/2014"
367,"Ras al Katheeb","YEM","RED",69,"P",14.9167,42.8833,"","YE RKB","","","25/05/2017"
368,"South Pacific","","AUS",3,"W",,,""," ","","","11/06/2007"
369,"Montreal","CAN","CAN",147,"P",45.5119,-73.5517,"4792","CA MTR","PQYGCRLBTA","Montreal Port Authority","03/10/2016"
370,"Mont Louis","CAN","CAN",119,"P",49.2333,-65.7333,"1623","CA MOL","","","26/07/2016"
371,"Koog aan den Zaan","NLD","NEU",199,"P",52.45,4.8167,"","NL KGZ","","","07/03/2012"
372,"Nagasaki","JPN","JPN",342,"P",32.7064,129.8295,"JP213","JP NGS","QYGCRBTA","Port & Harbour Section of Nagasaki Prefecture","15/11/2016"
373,"Rocky Point","JAM","CAR",175,"P",17.8175,-77.1419,"255/256","JM ROP","PGBA","Port Authority of Jamaica","21/07/2017"
374,"Hammerfall","NOR","SCN",138,"P",67.4167,15.5333,"","NO HFL","","","10/08/2015"
375,"Landskrona","SWE","SCN",602,"P",55.8667,12.8333,"2594","SE LAA","QYGBDTA","Landskrona Hamn AB","04/07/2017"
376,"Port Giles","AUS","AUS",187,"P",-35.0225,137.7603,"AUS 139/780","AU PGI","YGBT","Flinders Ports Proprietary Limited","08/01/2018"
377,"Australia","AUS","AUS",79,"Z",,,"","AU ","","","08/01/2018"
378,"Anderton","GBR","UKE",244,"P",53.2667,-2.5167,"","GB ","","","29/08/2012"
379,"Arbatax","ITA","SEU",111,"P",39.9366,9.7047,"1210","IT ATX","GCRBTA","Ufficio Circondariale Marittimo di Arbatax","15/11/2016"
380,"Kaiwatu","IDN","SEA",265,"P",-8.1,127.8167,"","ID ","","","13/02/2018"
381,"Tayport","GBR","UKE",645,"P",56.45,-2.8833,"","GB TAY","","","03/01/2018"
382,"U.K.","GBR","UKE",1,"Z",,,"","GB ","","","11/06/2007"
383,"Molfetta","ITA","SEU",275,"P",41.205,16.5855,"-","IT MOL","YGBA","Capitaneria di Porto di Molfetta","07/07/2016"
384,"Great Exuma Is.","BHS","CAR",255,"P",23.5667,-75.8167,"","BS EXU","","","21/07/2017"
385,"Butchers Cove","CAN","CAN",435,"P",48.8333,-54,"","CA BTC","","","07/06/2017"
386,"Rochford","GBR","UKE",784,"P",51.5833,.7333,"3750","GB RFD","","Allied Mills Limited","03/01/2018"
387,"Kurosaki","JPN","JPN",9,"P",33.0667,130.4333,"","JP KSK","","","21/02/2012"
388,"Wagenborgen","NLD","NEU",116,"P",53.25,6.9333,"","NL ","","","04/11/2010"
389,"Puente Ceso","ESP","IBE",47,"P",43.25,-8.9,"","ES ","","","05/07/2012"
390,"St. Nicholas(CPV)","CPV","WAF",8,"P",16.6333,-24.2833,"","CV SNE","","","22/09/2016"
391,"Shoreham","GBR","UKE",73,"P",50.8333,-.25,"2044","GB SHO","PQYGRBDTA","Shoreham Port","28/06/2012"
392,"Loch Striven","GBR","UKE",439,"P",55.95,-5.0833,"","GB LHS","","","05/06/2017"
393,"Esmeraldas","ECU","SAP",25,"P",.9872,-79.6519,"2799","EC ESM","PYGCRLBTA","Consortium Puerto Nuevo Milenium S.A.","26/09/2008"
394,"Ensenada(MEX)","MEX","CAM",8,"P",31.8553,-116.6181,"1938/3056","MX ESE","PQYGCTB","Administracion Portuaria Integral de Ensenada S.A. de C.V.","15/11/2016"
395,"San Pedro de Macoris","DOM","CAR",141,"P",18.4333,-69.3,"467","DO SPM","YGBA","Autoridad Portuaria Dominicana (APORDOM)","21/07/2017"
396,"Yangtze River","CHN","CHI",266,"W",,,"","CN ","","","13/11/2017"
397,"Talknafjordur","ISL","SCN",1281,"W",65.6167,-23.8167,"","IS ","","","12/09/2017"
398,"Das Is.","ARE","ARA",52,"P",25.1578,52.8864,"3413/2444","AE DAS","PQBT","Abu Dhabi Petroleum Ports Operating Company (IRSHAD)","12/09/2017"
399,"Bristol Bay","USA","USP",48,"W",57.3264,-159.8248,"","US ","","","12/07/2017"
400,"St. Michiel's Bay","CUW","SAA",400,"P",12.15,-69.0167,"702","CW SMB","P","Curacao Ports Authority N.V.","31/10/2017"
401,"San Andres","COL","CAM",119,"P",12.55,-81.6833,"1511","CO ADZ","GCA","The Port Captain","29/09/2015"
402,"New Tuticorin","IND","IND",136,"P",8.7581,78.1889,"3581","IN TUT","PYGCLBTA","Tuticorin Port Trust","18/10/2017"
403,"North Sea","","SCN",1129,"W",,,""," ","","","12/09/2017"
404,"Ruhrort","DEU","NEU",311,"P",51.45,6.7333,"","DE ROR","","","20/07/2011"
405,"Sullom Voe","GBR","UKE",557,"P",60.4411,-1.2725,"1239/3297","GB SUL","PQYGRBTA","Shetland Islands Council","22/11/2017"
406,"San Ciprian","ESP","IBE",34,"P",43.7,-7.45,"1122","ES SCI","","Alumina Espanola S.A. & Aluminio Espanol S.A.","09/07/2008"
407,"Sevastopol","UKR","BLK",144,"P",44.632,33.5664,"2217/2232/2233","UA SVP","PYGRLBDTA","Sevastopol Sea Trade Port","20/09/2016"
408,"Nagapattinam","IND","IND",140,"P",10.7667,79.85,"575","IN NPT","G","Nagapattinam Port","18/10/2017"
409,"Portocel","BRA","SAA",225,"P",-19.843,-40.0617,"551","BR PCL","YGTA","Terminal Especializado de Barra do Riacho S.A.","31/10/2017"
410,"Matsuura","JPN","JPN",332,"P",33.35,129.7333,"","JP MTS","","","15/11/2016"
411,"Barao de Teffe","BRA","SAA",147,"P",-25.4539,-48.6877,"","BR ","","","31/10/2017"
412,"Campbellton","CAN","CAN",103,"P",48.0167,-66.6667,"","CA COM","","","26/07/2016"
413,"Monopoli","ITA","SEU",273,"P",40.95,17.3,"-","IT MNP","QYGRBA","Ufficio Circondariale Marittimo di Monopoli","15/11/2016"
414,"Shortland Is.","SLB","AUS",434,"P",-7.0833,155.75,"","SB ","","","08/01/2018"
415,"Kalajoki","FIN","SCN",738,"P",64.25,23.9333,"2301","FI KJO","","Port of Kalajoki","04/07/2017"
416,"Argostoli","GRC","SEU",442,"P",38.2,20.4833,"203","GR ARM","YGA","Argostoli Port Police","15/11/2016"
417,"Sydney(NS)","CAN","CAN",73,"P",46.15,-60.2,"4748","CA SYD","PYGCRLBDTA","Port of Sydney","26/07/2016"
418,"Katsuura","JPN","JPN",172,"P",33.6167,135.95,"","JP KAT","","","12/01/2017"
419,"Uleelheue","IDN","SEA",117,"P",5.55,95.2833,"","ID UHE","","","13/02/2018"
420,"Eitrheimsneset","NOR","SCN",375,"P",60.1,6.5333,"","NO EHM","","","25/01/2017"
421,"Loctudy","FRA","NEU",589,"P",47.8333,-4.1667,"","FR LOC","","","18/09/2017"
422,"Bergen-op-Zoom","NLD","NEU",398,"P",51.5,4.2667,"","NL BZM","","","06/07/2017"
423,"Furillen","SWE","SCN",636,"P",57.7667,19,"","SE FRL","","","04/07/2017"
424,"Tonsberg","NOR","SCN",487,"P",59.2667,10.4167,"3717","NO TON","YGCRBTA","Tonsberg Havnevesen","04/07/2017"
425,"Cape Brewster","GRL","SCN",1207,"L",70.15,-22.05,"","GL CBR","","","12/09/2017"
426,"Damietta","EGY","NAF",36,"P",31.3833,31.8,"2578","EG DAM","QYGCRBTA","Damietta Port Authority","13/11/2014"
427,"Port Hawkesbury","CAN","CAN",64,"P",45.6156,-61.3631,"4758","CA PHW","PYGB","Strait of Canso Superport Corporation Limited","26/07/2016"
428,"Uchiura Bay","JPN","JPN",25,"W",,,"","JP ","","","11/06/2007"
429,"Bideford","GBR","UKE",169,"P",51.0167,-4.2,"1160","GB BID","GBTA","Torridge District Council","29/08/2012"
430,"Batsfjord","NOR","SCN",66,"P",70.6344,29.7178,"","NO BJF","","","22/09/2015"
431,"Commonwealth Bay","ATA","AUS",496,"P",-67,142,"","AQ CBY","","","08/01/2018"
432,"Rudnaya Pristan","RUS","CHI",506,"P",44.3436,135.8369,"","RU RDP","","","13/11/2017"
433,"Cape Palmas","LBR","WAF",76,"L",4.3667,-7.7167,"1980","LR CPA","PQGBT","National Port Authority","25/09/2017"
434,"Skagway","USA","USP",101,"P",59.45,-135.3167,"4970","US SGY","PYGCRLBTA","Port of Skagway","05/10/2017"
435,"Cape Henry","USA","USA",48,"L",36.9333,-76,"","US XPY","","","10/02/2015"
436,"De Kastri","RUS","CHI",513,"P",51.4667,140.7833,"3340","RU DKA","PYGT","Commercial Sea Port of De Kastri","13/11/2017"
437,"Port Hope","CAN","CAN",177,"P",43.95,-78.2833,"","CA OPE","","","26/07/2016"
438,"Charlestown(England)","GBR","UKE",134,"P",50.3333,-4.75,"","GB CHF","","","29/08/2012"
439,"Savanna la Mar","JAM","CAR",179,"P",18.2,-78.1333,"","JM SLM","","","21/07/2017"
440,"Chatelineau","BEL","NEU",437,"P",50.4167,4.5167,"","BE CTL","","","20/07/2011"
441,"Vidlin Voe","GBR","UKE",559,"P",60.3725,-1.1306,"","GB VIV","","","22/11/2017"
442,"Thistle Terminal","GBR","UKE",571,"T",61.3833,1.6,"","GB THF","","","22/11/2017"
443,"Santa Maria Is.","AZO","IBE",120,"L",36.9828,-25.0908,"","PT SMA","","","30/03/2016"
444,"Ar","SWE","SCN",640,"P",57.9167,18.95,"","SE AAR","","","04/07/2017"
445,"Braviken","SWE","SCN",648,"W",58.6447,16.3889,"","SE BVK","","","04/07/2017"
446,"Las Piedras","VEN","SAA",415,"P",11.7167,-70.22,"2190","VE LSP","PBTA","Las Piedras Port Authority","31/10/2017"
447,"Tyssebotn","NOR","SCN",321,"P",60.6167,5.5833,"","NO ","","","25/01/2017"
448,"Whangarei","NZL","AUS",300,"P",-35.7333,174.35,"NZ 5214/5215","NZ WRE","YGCBTA","Northport Limited","08/01/2018"
449,"Ortigueira","ESP","IBE",37,"P",43.6833,-7.8333,"","ES OGU","","","06/03/2012"
450,"Bundaberg","AUS","AUS",254,"P",-24.8067,152.4003,"AUS 242/243","AU BDB","PQYGBTA","Port of Brisbane Proprietary Limited","08/01/2018"
451,"Morecambe Bay","GBR","UKE",265,"A",54.1167,-3,"","GB ","","","18/10/2013"
452,"Puerto Bolivar(COL)","COL","SAA",445,"P",12.2667,-71.95,"2267","CO PBO","PYGCRTA","Carbones del Cerrejon LLC","31/10/2017"
453,"Aberdovey","GBR","UKE",209,"P",52.5333,-4.05,"","GB ABV","","","29/08/2012"
454,"Waalwijk","NLD","NEU",378,"P",51.7,5.0667,"","NL WLK","","","29/05/2014"
455,"Wisconsin","USA","CAN",298,"L",,,"","US ","","","26/07/2016"
456,"Kipumbwe","TZA","EAF",115,"P",-5.6167,38.8833,"","TZ ","","","05/01/2016"
457,"La Vela de Coro","VEN","SAA",409,"P",11.4667,-69.5667,"","VE LVL","","","31/10/2017"
458,"Dinteloord","NLD","NEU",386,"P",51.6333,4.3667,"","NL DIN","","","20/07/2011"
459,"Santa Liberata","ITA","SEU",162,"P",42.4167,11.15,"","IT SLB","","","07/07/2016"
460,"Greenore","IRL","UKE",305,"P",54.0333,-6.1333,"2800","IE GRN","YGCBA","Greenore Port Limited.","15/11/2016"
461,"Shakhtersk","RUS","CHI",567,"P",49.1614,142.055,"2161","RU SHA","YBA","Shakhtersk Commercial Sea Port","13/11/2017"
462,"Mangarin","PHL","SEA",515,"P",12.3333,121.0667,"","PH MGN","","","13/02/2018"
463,"Marie Galante","GLP","CAR",63,"P",15.8833,-61.3167,"","GP GBJ","","","20/10/2016"
464,"Sisimiut","GRL","SCN",1162,"P",66.95,-53.6833,"-","GL JHS","QCTA","Royal Arctic Line A/S","12/09/2017"
465,"Jose Ignacio Terminal","URY","SAA",122,"T",-34.95,-54.7,"2004","UY JIT","PA","Administracion Nacional de Combustibles Alcohol y Portland","31/10/2017"
466,"Hinobaan","PHL","SEA",605,"P",9.5667,122.5,"","PH HNB","","","13/02/2018"
467,"Lequeitio","ESP","IBE",9,"P",43.3667,-2.4833,"","ES LQO","","","29/02/2012"
468,"Point Judith","USA","USA",159,"P",41.3667,-71.4833,"","US PJH","","","01/08/2016"
469,"Aylesford","GBR","UKE",41,"P",51.2667,.4667,"","GB AYS","","","28/06/2012"
470,"Ponta da Madeira","BRA","SAA",269,"P",-2.5656,-44.3742,"535","BR PMA","YTA","Vale SA (formerly Companhia Vale do Rio Doce)","31/10/2017"
471,"Poleng Terminal","IDN","SEA",203,"T",-6.6608,112.9383,"","ID POL","","","13/02/2018"
472,"Salsbruket","NOR","SCN",168,"P",64.8,11.8833,"","NO SBU","","","14/04/2016"
473,"Elsinore","DNK","SCN",1007,"P",56.0333,12.6167,"2594","DK HLS","GLBTA","Elsinore Statshavn","12/09/2017"
474,"Ingleside","USA","USG",9,"P",27.8422,-97.2209,"","US YIG","","","15/11/2016"
475,"Sandy Point(USA)","USA","USP",225,"P",48.8,-122.7,"","US ","","","20/12/2017"
476,"Gamadodo","PNG","AUS",63,"P",-10.4,150.4,"","PG GMD","","","29/09/2016"
477,"Lowestoft","GBR","UKE",760,"P",52.4748,1.7536,"1535","GB LOW","YGCBDTA","Associated British Ports","03/01/2018"
478,"Portugal","PRT","IBE",64,"Z",,,"","PT ","","","05/07/2012"
479,"Porto Velho","BRA","SAA",297,"P",-8.6167,-63.7167,"","BR PVH","","","31/10/2017"
480,"Tiverton(USA)","USA","USA",174,"P",41.6333,-71.2,"","US TIV","","","01/08/2016"
481,"Tiverton(CAN)","CAN","CAN",22,"P",44.4,-66.2167,"","CA TIV","","","26/07/2016"
482,"China Sea","","SEA",700,"W",,,""," ","","","13/02/2018"
483,"Falkland Islands","FLK","SAA",12,"L",,,"","FK ","","","31/10/2017"
484,"Valletta","MLT","SEU",254,"P",35.8947,14.5072,"","MT MLA","PQYGCRLBDTA","Malta Maritime Authority","12/07/2016"
485,"Kuala Enok","IDN","SEA",74,"P",-.5333,103.4,"","ID ENO","","","23/05/2017"
486,"Charlestown(Scotland)","GBR","UKE",665,"P",56.0333,-3.5,"","GB CWN","","","03/01/2018"
487,"Acapulco","MEX","CAM",42,"P",16.8333,-99.9167,"1944","MX ACA","PGCLBA","Administracion Portuaria Integral de Acapulco S.A. de C.V.","10/02/2015"
488,"Appledore","GBR","UKE",168,"P",51.05,-4.2,"1160","GB APP","","","29/08/2012"
489,"Karlsruhe","DEU","NEU",358,"P",49.05,8.3333,"-","DE KAE","PQGCR","Rheinhafen Karlsruhe","20/07/2011"
490,"Guayaquil","ECU","SAP",33,"P",-2.2833,-79.9167,"560/586","EC GYE","PQYGCLBDTA","Autoridad Portuaria de Guayaquil","29/01/2014"
491,"Puerto Libertad","MEX","CAM",24,"P",29.9,-112.6833,"","MX PLD","","","29/02/2012"
492,"Tremiti Is.","ITA","SEU",280,"P",42.1167,15.5,"","IT TMT","","","07/07/2016"
493,"Calshot Light-vessel","GBR","UKE",100,"W",50.8,-1.2833,"","GB ","","","29/08/2012"
494,"Statfjord Terminal","NOR","SCN",339,"T",61.25,1.85,"","NO STT","","","25/01/2017"
495,"Matinloc Terminal","PHL","SEA",513,"T",11.4833,119.0167,"","PH MLT","","","13/02/2018"
496,"Finnart","GBR","UKE",430,"P",56.1153,-4.835,"3746","GB FNT","PBA","INEOS Finnart Ocean Terminal","05/06/2017"
497,"Farjsundet","ALD","SCN",759,"P",60.2333,20.0167,"","AX ","","","04/07/2017"
498,"Marthas Vineyard Is.","USA","USA",186,"L",41.4,-70.6167,"","US MVY","","","01/08/2016"
499,"Littlehampton","GBR","UKE",74,"P",50.8111,-.5386,"1991","GB LIT","YGA","Littlehampton Harbour Board","04/07/2012"
500,"Kaskinen","FIN","SCN",747,"P",62.3833,21.2167,"2303","FI KAS","YGBTA","Port of Kaskinen","04/07/2017"
501,"Chornomorsk","UKR","BLK",121,"P",46.3164,30.6578,"2243","UA ILK","PQYGCRBDTA","Sea Commercial Port of Ilyichevsk","28/02/2017"
502,"Kawasaki","JPN","JPN",219,"P",35.5,139.75,"JP1085","JP KWS","PQYGCBDTA","Port & Harbour Bureau","19/02/2010"
503,"Kapelle op den Bos","BEL","NEU",451,"P",51.0167,4.3667,"","BE KPB","","","20/07/2011"
504,"Morlaix","FRA","NEU",574,"P",48.6333,-3.8833,"","FR MXN","","","18/09/2017"
505,"Sugandafjordur","ISL","SCN",1273,"W",,,"","IS ","","","12/09/2017"
506,"Hornefors","SWE","SCN",713,"P",63.6167,19.9,"2300","SE HNF","","","04/07/2017"
507,"Pedra de Lume","CPV","WAF",10,"P",16.75,-22.9,"","CV PLM","","","08/07/2013"
508,"Tsurusaki","JPN","JPN",379,"P",33.25,131.6833,"","JP TSK","","","10/02/2015"
509,"Mersa Matruh","EGY","NAF",35,"P",31.3667,27.2333,"3400","EG MUH","GCR","Head of Maritime Transport Sector","13/11/2014"
510,"Gravelines","FRA","NEU",505,"P",51.0075,2.1689,"","FR GRV","","","20/07/2011"
511,"Manfredonia","ITA","SEU",278,"P",41.6167,15.9167,"1443","IT MFR","PQGBTA","Capitaneria di Porto di Manfredonia","15/11/2016"
512,"Queensland","AUS","AUS",80,"L",,,"","AU ","","","08/01/2018"
513,"Port Chester","USA","USA",148,"P",40.9833,-73.65,"-","US UXZ","PB","","01/08/2016"
514,"Nykobing(Sjaelland)","DNK","SCN",1016,"P",55.9167,11.6833,"","DK NKI","","","12/09/2017"
515,"Hendrik Ido Ambacht","NLD","NEU",260,"P",51.85,4.6167,"","NL HIA","","","15/08/2013"
516,"Father Point","CAN","CAN",122,"L",48.5167,-68.4667,"","CA FAP","","","26/07/2016"
517,"Piney Point","USA","USA",63,"P",38.1333,-76.5333,"","US PYP","","","01/08/2016"
518,"Puerto de Hierro","VEN","SAA",357,"P",10.6333,-62.1,"2190","VE PHO","YGA","Puerto de Hierro S.A.","31/10/2017"
519,"Chennai Anch.","IND","IND",146,"A",13.0778,80.3458,"","IN ","","","18/10/2017"
520,"Bahia Posesion","CHL","SAP",151,"W",,,"","CL ","","","08/11/2017"
521,"Far East","CHN","SEA",2,"L",,,"","CN ","","","15/01/2009"
522,"Rio Bayano","PAN","CAM",89,"W",,,"","PA ","","","10/02/2015"
523,"Fijnaart","NLD","NEU",380,"P",51.6333,4.4833,"","NL FFJ","","","20/07/2011"
524,"Guldborg","DNK","SCN",1042,"P",54.8667,11.75,"","DK GDB","","","12/09/2017"
525,"Caspian Sea","","BLK",178,"W",,,""," ","","","20/09/2016"
526,"Persian Gulf","","ARA",1,"W",,,""," ","","","23/11/2010"
527,"South Brewer","USA","USA",216,"P",44.7833,-68.7833,"","US OBW","","","01/08/2016"
528,"Archangel","RUS","SCN",41,"P",64.5333,40.5,"2280","RU ARH","PQYGCBDTA","JSC Arkhangelsk Sea Commercial Port","07/02/2014"
529,"Sidi Ifni","MAR","NAF",138,"P",29.3636,-10.1864,"","MA SII","","","06/07/2016"
530,"South Haven","USA","CAN",336,"P",42.45,-86.25,"","US SOH","","","26/07/2016"
531,"King Is.","AUS","AUS",223,"P",-39.8333,144,"","AU KNS","","","08/01/2018"
532,"Hamilton(BMU)","BMU","USA",227,"P",32.3,-64.7833,"1073","BM BDA","GCRLBTA","Department of Marine & Ports Services","01/08/2016"
533,"Laffiteau","HTI","CAR",163,"P",18.7167,-72.4333,"","HT LFF","","","21/07/2017"
534,"Palanca Terminal","AGO","WAF",261,"T",-6.95,12.4,"3206","AO PAT","PT","SONANGOL P&P","08/11/2017"
535,"Male","MDV","IND",111,"P",4.1667,73.5,"3323","MV MLE","GCLBTA","Maldives Ports Authority","18/10/2017"
536,"Long Island(NY USA)","USA","USA",137,"L",,,"","US XHO","","","01/08/2016"
537,"U.S.A.","USA","USP",19,"Z",,,"","US ","","","29/07/2016"
538,"Buchanan(LBR)","LBR","WAF",71,"P",5.85,-10.0667,"3648","LR UCN","PYGCA","National Port Authority","09/06/2017"
539,"Buchanan(USA)","USA","USA",116,"P",41.2,-73.9167,"","US KCB","","","01/08/2016"
540,"Puerto Benjamin Zeledon","NIC","CAM",121,"P",13.3167,-83.6167,"","NI PBZ","","","29/09/2015"
541,"Finstrom","ALD","SCN",763,"P",60.25,19.9167,"","AX ","","","04/07/2017"
542,"Boca Grande(USA)","USA","USG",212,"P",26.7167,-82.25,"3853","US BCG","PYGT","Lee County Port Authority","15/09/2017"
543,"Goeje Is.","KOR","CHI",452,"L",34.8806,128.6211,"","KR ","","","13/11/2017"
544,"Hound Point","GBR","UKE",671,"P",56.0053,-3.3614,"736/735","GB HPT","PTBA","BP Exploration Operating Company Limited","03/01/2018"
545,"North Europe","","NEU",2,"L",,,""," ","","","11/06/2007"
546,"Kristiinankaupunki","FIN","SCN",748,"P",62.2667,21.3167,"2303","FI KRS","PYGRT","Port of Kristiinankaupunki","04/07/2017"
547,"Tolkkinen","FIN","SCN",799,"P",60.3333,25.5833,"2248","FI TOK","YGTA","Borga Stuveri AB OY","04/07/2017"
548,"Maui Is.","USA","USP",12,"L",20.8,-156.3333,"","US ","","","29/07/2016"
549,"St. Kitts","KNA","CAR",76,"L",17.3,-62.7167,"","KN SKB","","","20/10/2016"
550,"Mayaguez","PRI","CAR",122,"P",18.2,-67.15,"478","PR MAZ","GA","Puerto Rico Ports Authority","25/09/2017"
551,"Punta Cardon","VEN","SAA",417,"P",11.6511,-70.2156,"2190","VE PCN","PQGBTA","Petroleos de Venezuela S.A. (PDVSA)","31/10/2017"
552,"Vordingborg","DNK","SCN",1032,"P",55,11.9,"2138","DK VOR","YGBTA","Vordingborg Havn","12/09/2017"
553,"Rosarito Terminal","MEX","CAM",5,"T",32.3633,-117.0905,"3056","MX RST","PQ","Port of Rosarito Terminal Authority","06/08/2009"
554,"Savusavu Bay","FJI","AUS",374,"W",-16.7333,179.2167,"","FJ SVU","","","08/01/2018"
555,"Belinyu","IDN","SEA",164,"P",-1.65,105.7833,"","ID BYU","","","13/02/2018"
556,"East Germany","DDR","SCN",927,"Z",,,"","DD ","","","12/09/2017"
557,"Wake Is.","UMI","AUS",478,"P",19.3,166.6333,"","UM AWK","","","08/01/2018"
558,"Guayabal","CUB","CAR",206,"P",20.7,-77.6167,"-","CU GYB","G","Empresa Terminales Mambisas del Centro Este","21/07/2017"
559,"Larkollen","NOR","SCN",510,"P",59.3167,10.6833,"","NO LRK","","","04/07/2017"
560,"Grimbergen","BEL","NEU",452,"P",50.9333,4.3667,"","BE GRB","","","15/08/2013"
561,"Rothesay","GBR","UKE",441,"P",55.8333,-5.05,"1867","GB RAY","GRB","Argyll & Bute Council","05/06/2017"
562,"Breasclete Bay","GBR","UKE",520,"W",,,"","GB ","","","05/06/2017"
563,"Brofjorden","SWE","SCN",528,"P",58.3514,11.4225,"853","SE BRO","PQBT","Preemraff Lysekil","04/07/2017"
564,"Cape Farewell","GRL","SCN",1193,"L",59.7667,-43.9,"","GL ","","","12/09/2017"
565,"St. Helena","SHN","WAF",284,"L",-15.9167,-5.7167,"","SH ","","","08/11/2017"
566,"Lake Malaren","SWE","SCN",662,"W",,,"","SE ","","","04/07/2017"
567,"Cape Vincent","USA","CAN",167,"L",44.1278,-76.3331,"","US CVI","","","26/07/2016"
568,"Cape Ray","CAN","CAN",380,"L",47.6167,-59.3,"","CA CPY","","","26/07/2016"
569,"Cape Race","CAN","CAN",405,"L",46.65,-53.0667,"","CA ","","","26/07/2016"
570,"Portneuf","CAN","CAN",361,"P",48.6281,-69.1289,"","CA PTN","","","25/09/2017"
571,"Port Nolloth","ZAF","EAF",9,"P",-29.25,16.8667,"3861/4136","ZA NOL","","","09/02/2012"
572,"Caleta Clarencia","CHL","SAP",145,"P",-52.9,-70.15,"1694","CL CLR","PT","Empresa Portuaria Austral","08/11/2017"
573,"Les Escoumins","CAN","CAN",359,"L",48.3402,-69.4158,"","CA LES","","","26/07/2016"
574,"Grytviken","FLK","SAA",11,"P",-54.2833,-36.5,"","FK ","","","31/10/2017"
575,"Penang light. area","MYS","SEA",16,"O",,,"","MY ","","","11/06/2007"
576,"Antwerp","BEL","NEU",410,"P",51.2558,4.3902,"139","BE ANR","PQYGCRLBDTA","Antwerp Port Authority","21/03/2017"
577,"Arroyo Seco","ARG","SAA",76,"P",-33.1292,-60.5178,"1982A","AR ASO","PYB","","31/10/2017"
578,"Ile du Bic","CAN","CAN",125,"L",,,"","CA ","","","26/07/2016"
579,"Ile de Re","FRA","NEU",626,"L",46.2,-1.4167,"","FR ","","","18/09/2017"
580,"Ny Alesund","SJM","SCN",9,"P",78.9167,11.9333,"","SJ NYA","","","23/06/2015"
581,"Boca Grande(CUB)","CUB","CAR",208,"P",21.55,-78.6667,"","CU BOG","","","21/07/2017"
582,"Snaefellsnes","ISL","SCN",1292,"L",,,"","IS ","","","12/09/2017"
583,"Luka Mirna","HRV","SEU",337,"P",45.3167,13.5833,"","HR LMA","","","07/07/2016"
584,"West Germany","DEU","SCN",950,"Z",,,"","DE ","","","12/09/2017"
585,"Ridham Dock","GBR","UKE",50,"P",51.3836,.7603,"1834/1835","GB RID","PYGBA","Ridham Sea Terminals Limited.","28/06/2012"
586,"Caspian Sea Iran","IRN","BLK",221,"W",,,"","IR ","","","20/09/2016"
587,"Kalianget","IDN","SEA",225,"P",-7.0667,113.9833,"945","ID KAT","GRA","Harbour Office","13/02/2018"
588,"Poro Is.","PHL","SEA",593,"P",10.6333,124.4167,"","PH POR","","","13/02/2018"
589,"Hon Khoi","VNM","CHI",49,"P",12.5667,109.2333,"3883","VN HKI","YGBTA","Port Authority of Nha Trang","12/04/2017"
590,"Holmedal","NOR","SCN",295,"P",61.35,5.1833,"","NO HLM","","","25/01/2017"
591,"Marsviken","SWE","SCN",652,"P",58.6667,16.95,"","SE MAN","","","04/07/2017"
592,"Quiberon","FRA","NEU",601,"P",47.4823,-3.1211,"","FR QUI","","","18/09/2017"
593,"Shimizu","JPN","JPN",197,"P",35.032,138.4964,"JP89","JP SMZ","PQYGCRBDT","Shimizu Port Administration Bureau","19/02/2010"
594,"Cam-Ranh Bay","VNM","CHI",44,"W",11.8847,109.1611,"","VN ","","","12/04/2017"
595,"'sGravendeel","NLD","NEU",264,"P",51.7667,4.6,"","NL GRA","","","28/06/2013"
596,"Bas Kouilou","COG","WAF",218,"P",-4.5,11.6833,"","CG BKU","","","08/11/2017"
597,"Seki Saki","JPN","JPN",377,"P",33.2667,131.9,"","JP EKK","","","10/02/2015"
598,"Chuuk Islands","FSM","AUS",18,"L",,,"982","FM TKK","PGCBA","Chuuk Port Control","04/11/2008"
599,"Suez Canal","EGY","NAF",6,"C",,,"233","EG ","BT","Suez Canal Authority","25/04/2012"
600,"Dumbarton","GBR","UKE",422,"P",55.9333,-4.5667,"","GB DBT","","","05/06/2017"
601,"Svalbard","SJM","SCN",7,"L",,,"","SJ ","","","11/06/2007"
602,"Pacific Islands","","AUS",4,"L",,,""," ","","","11/06/2007"
603,"Rio de Janeiro","BRA","SAA",182,"P",-22.9167,-43.2,"3970/566","BR RIO","PQYGCRLBDT","Companhia Docas do Rio de Janeiro","31/10/2017"
604,"Isafjordur","ISL","SCN",1272,"P",66.0739,-23.1419,"2976","IS ISA","PGCLBTA","Port of Isafjordur","12/09/2017"
605,"Castellammare di Stabia","ITA","SEU",188,"P",40.6919,14.4767,"916","IT CAS","GRBA","Capitaneria di Porto di Castellammare di Stabia","07/07/2016"
606,"Vikholmen","NOR","SCN",147,"P",66.2,12.9667,"","NO VHN","","","14/04/2016"
607,"Randers","DNK","SCN",1089,"P",56.4606,10.0444,"905/2108","DK RAN","QYGRBTA","Randers Havn","12/09/2017"
608,"Santa Giusta","ITA","SEU",120,"P",39.8833,8.6167,"","IT ZTG","","","07/07/2016"
609,"Cockenzie","GBR","UKE",674,"P",55.9667,-2.95,"","GB CNZ","","","03/01/2018"
610,"Ivittuut","GRL","SCN",1179,"P",61.2,-48.1667,"","GL ","","","12/09/2017"
611,"Makassar","IDN","SEA",335,"P",-5.1333,119.4,"2638","ID MAK","PQYGCRBTA","PT (Persero) Pelabuhan Indonesia IV","13/02/2018"
612,"Daneborg","GRL","SCN",1212,"P",74.3,-20.25,"","GL DAN","","","12/09/2017"
613,"Le Pouzin","FRA","SEU",67,"P",44.75,4.75,"","FR LPZ","","","07/07/2016"
614,"Zhongshan","CHN","CHI",148,"P",22.5167,113.35,"-","CN ZSN","PYGC","Zhongshan Port & Shipping Enterprise Group Limited","13/11/2017"
615,"Porto Amboim","AGO","WAF",271,"P",-10.7281,13.7567,"1215","AO PBN","YG","Companhia do Caminho de Ferro do Amboim","08/11/2017"
616,"South Atlantic","","WAF",280,"W",,,""," ","","","08/11/2017"
617,"Kuala Pahang","MYS","SEA",708,"P",3.5333,103.45,"","MY KPG","","","13/02/2018"
618,"Beatrice Terminal","GBR","UKE",527,"T",58.1333,-3.05,"","GB ","","","05/06/2017"
619,"Rayne Point","IRL","UKE",331,"L",,,"","IE ","","","18/10/2013"
620,"Pulau Langkawi","MYS","SEA",12,"P",6.4333,99.75,"3485","MY LGK","PYG","Marine Department Peninsular Malaysia","29/12/2016"
621,"Ilha Grande Bay","BRA","SAA",161,"W",,,"","BR ","","","31/10/2017"
622,"Sigerfjord","NOR","SCN",105,"P",68.6436,15.5161,"","NO SRD","","","10/08/2015"
623,"Las Salinas","CHL","SAP",106,"P",-33.0167,-71.5667,"","CL LSS","","","12/07/2017"
624,"Harlesiel","DEU","NEU",97,"P",53.6333,7.75,"","DE HSX","","","17/11/2014"
625,"Mistley","GBR","UKE",769,"P",51.95,1.0833,"2693","GB MIS","YGA","Mistley Quay & Forwarding","03/01/2018"
626,"Fairport","USA","CAN",223,"P",41.7667,-81.3167,"","US XFP","","","25/09/2017"
627,"Lyngs Odde","DNK","SCN",1074,"P",55.5167,9.75,"900","DK LYO","QBA","Ny Nitrogen A/S","12/09/2017"
628,"Brighton(TTO)","TTO","CAR",6,"P",10.2455,-61.632,"475","TT LAB","PYBT","La Brea Industrial Development Company Limited (LABIDCO)","15/11/2016"
629,"Horn Is.","AUS","AUS",83,"P",-10.5966,142.2469,"","AU HID","","","08/01/2018"
630,"Fourgassie","GUF","SAA",313,"P",4.5833,-52.35,"","GF FGE","","","31/10/2017"
631,"Ras al Hadd","OMN","RED",91,"P",22.5,59.8,"","OM RHD","","","06/06/2017"
632,"Rozi Is.","IND","IND",25,"P",22.5333,70.05,"","IN RZI","","","15/03/2017"
633,"Gebe Is.","IDN","SEA",293,"L",-.0658,129.3902,"","ID GEB","","","13/02/2018"
634,"Tachibana","JPN","JPN",284,"P",33.8833,134.7167,"JP153","JP TBN","YGB","Port & Harbour Section of Tokushima Prefecture","19/02/2010"
635,"Bremerton","USA","USP",245,"P",47.5667,-122.6167,"","US PWT","","","20/12/2017"
636,"Caroline Islands","","AUS",13,"L",,,""," ","","","11/06/2007"
637,"Car Nicobar","IND","IND",210,"P",9.1667,92.75,"","IN CBD","","","18/10/2017"
638,"Tachibana Bay","JPN","JPN",283,"W",,,"","JP ","","","19/02/2010"
639,"Barranquilla","COL","SAA",451,"P",10.9589,-74.767,"2261","CO BAQ","PYGCRBTA","Sociedad Portuaria Regional de Barranquilla S.A.","31/10/2017"
640,"Haren(DEU)","DEU","NEU",107,"P",52.8,7.25,"","DE HRN","","","04/11/2010"
641,"Latchford","GBR","UKE",253,"P",53.3833,-2.5667,"","GB LHD","","","16/10/2013"
642,"Port Okha","IND","IND",30,"P",22.4667,69.0833,"673","IN OKH","PYGBT","Gujarat Maritime Board","15/03/2017"
643,"Dingalan Bay","PHL","SEA",553,"W",15.25,121.4333,"","PH ","","","13/02/2018"
644,"Jimenez","PHL","SEA",660,"P",8.332,123.8572,"3426","PH JNZ","","","13/02/2018"
645,"Schlutup","DEU","SCN",951,"P",53.8833,10.7833,"","DE SUP","","","12/09/2017"
646,"Ella Is.","GRL","SCN",1211,"L",72.8667,-24.9167,"","GL ELI","","","12/09/2017"
647,"Moray Firth","GBR","UKE",583,"W",,,"","GB ","","","22/11/2017"
648,"Yerakini","GRC","SEU",556,"P",40.2667,23.4333,"1085","GR YER","YGBA","Grecian Magnesite S.A.","07/07/2016"
649,"Crown Point(TTO)","TTO","CAR",26,"P",11.15,-60.85,"","TT CNP","","","20/10/2016"
650,"Mona Is.","PRI","CAR",129,"P",18.0833,-67.95,"","PR MNI","","","21/07/2017"
652,"Kreekkrak","NLD","NEU",413,"P",51.45,4.2167,"","NL KRK","","","04/04/2012"
653,"Thingeyri","ISL","SCN",1278,"P",65.8667,-23.4833,"","IS TEY","","","12/09/2017"
654,"Clovelly Roads","GBR","UKE",167,"A",50.9994,-4.3936,"","GB ","","","30/10/2015"
655,"Frederiksvaerk","DNK","SCN",1010,"P",55.9636,12.0153,"-","DK FDV","YGBA","Frederiksvaerk Havn","12/09/2017"
656,"Alleppey","IND","IND",97,"P",9.5,76.3167,"1565/1566","IN ALF","","The Port Officer","18/10/2017"
657,"Coquimbo","CHL","SAP",95,"P",-29.95,-71.35,"3080","CL CQQ","YGCRLBTA","Empresa Portuaria Coquimbo","24/04/2014"
658,"Port Canaveral","USA","USA",15,"P",28.4167,-80.5833,"3692","US PCV","PQYGCRLBDTA","Canaveral Port Authority","10/02/2015"
659,"Sao Sebastiao","BRA","SAA",152,"P",-23.8078,-45.4025,"3970","BR SSO","PYGBT","Companhia Docas de Sao Sebastiao","31/10/2017"
660,"Argyll Terminal","GBR","UKE",654,"T",56.15,2.8,"","GB GYL","","","03/01/2018"
661,"Mubarras Terminal","ARE","ARA",49,"T",24.4333,53.5333,"3413","AE MBS","PA","Abu Dhabi Petroleum Ports Operating Company (IRSHAD)","12/09/2017"
662,"Lough Swilly","IRL","UKE",376,"W",,,"","IE ","","","05/06/2017"
663,"Atapupu","IDN","SEA",260,"P",-9.0333,124.8833,"","ID APU","","","13/02/2018"
664,"Buchan Terminal","GBR","UKE",615,"T",57.9,.0333,"","GB UCN","","","03/01/2018"
665,"Firth of Clyde","GBR","UKE",410,"W",55.5209,-4.8991,"","GB ","","","05/06/2017"
666,"Nawiliwili","USA","USP",5,"P",21.95,-159.35,"1490","US NWL","PQYGCRLTA","State of Hawaii Department of Transportation","26/03/2008"
667,"South Strome","GBR","UKE",494,"P",57.35,-5.5667,"","GB UTS","","","05/06/2017"
668,"Cantley","GBR","UKE",757,"P",52.5667,1.5333,"","GB CNL","","","03/01/2018"
669,"Porto Santo Stefano","ITA","SEU",163,"P",42.45,11.1167,"131","IT PSS","PYGBT","Ufficio Circondariale Marittimo di Porto Santo Stefano","07/07/2016"
670,"Surabaya","IDN","SEA",208,"P",-7.2,112.7333,"975","ID SUB","PQYGCRBTA","Port of Tanjung Perak","13/02/2018"
671,"Madura Terminal","IDN","SEA",204,"T",-7.3706,113.2778,"","ID MDR","","","13/02/2018"
672,"Faslane Dock","GBR","UKE",426,"P",56.0622,-4.817,"","GB FAS","","","05/06/2017"
673,"Sudhureyri","ISL","SCN",1274,"P",66.1333,-23.5333,"","IS SUD","","","12/09/2017"
674,"Pago Pago","ASM","AUS",417,"P",-14.2734,-170.6817,"1729","AS PPG","PGCRLBTA","Department of Port Administration","08/01/2018"
675,"Mali Losinj","HRV","SEU",365,"P",44.5333,14.4667,"1996","HR LSZ","RDT","Port of Mali Losinj Authority","07/07/2016"
676,"Yonkers","USA","USA",115,"P",40.95,-73.8333,"","US YON","","","01/08/2016"
677,"Kristiansund","NOR","SCN",218,"P",63.11,7.7311,"2295","NO KSU","YGCRLBTA","Kristiansund Havnevesen","14/04/2016"
678,"Vuda Point Terminal","FJI","AUS",366,"T",-17.6814,177.3869,"","FJ VUD","","","08/01/2018"
679,"Rota Is.","MNP","AUS",8,"P",14.1667,145.1667,"","MP ROP","","","29/03/2012"
680,"Bamberton","CAN","USP",182,"P",48.5833,-123.5167,"","CA BAM","","","20/12/2017"
681,"Kristiansand","NOR","SCN",457,"P",58.1444,7.995,"2987","NO KRS","YGCRLBDTA","Port of Kristiansand","04/07/2017"
682,"Cementon","USA","USA",127,"P",42.1333,-73.9167,"","US ACS","","","01/08/2016"
683,"Ciudadela","ESP","SEU",38,"P",40,3.8333,"","ES QIU","","","15/06/2015"
684,"Dun Laoghaire","IRL","UKE",310,"P",53.2952,-6.1344,"1447","IE DLG","RBTA","Dun Laoghaire Harbour Company","18/10/2013"
685,"Ninian Terminal","GBR","UKE",573,"T",60.85,1.4667,"","GB ","","","22/11/2017"
686,"Limassol","CYP","EMD",57,"P",34.6542,33.0103,"849","CY LMS","PYGCRLBDTA","Cyprus Ports Authority","03/10/2012"
687,"Golfo San Matias","ARG","SAA",38,"W",,,"","AR ","","","31/10/2017"
688,"Small Ships Anch.","GBR","UKE",92,"A",,,"","GB ","","","29/08/2012"
689,"Novorossiysk","RUS","BLK",241,"P",44.735,37.7894,"","RU NVS","PYGCRBDTA","Novorossiysk Commercial Sea Port Company Limited","28/03/2017"
690,"Bajo Grande","VEN","SAA",436,"P",10.5061,-71.635,"1517","VE BJV","PQBTA","Petroleos de Venezuela S.A. (PDVSA)","31/10/2017"
691,"Karlsoy","NOR","SCN",89,"P",70,19.9,"","NO KAY","","","10/08/2015"
692,"Chedabucto Bay","CAN","CAN",55,"W",,,"","CA ","","","26/07/2016"
693,"Porsgrunn","NOR","SCN",474,"P",59.1333,9.65,"3502","NO POR","PQYGRBDA","Grenland Havn IKS","04/07/2017"
694,"Bocas del Toro","PAN","CAM",113,"P",9.3333,-82.25,"","PA BOC","","","29/09/2015"
695,"Mentawai","IDN","SEA",130,"L",,,"","ID ","","","13/02/2018"
696,"Ras Shukheir Terminal","EGY","RED",25,"T",28.1333,33.2833,"2374","EG RSH","PT","The Egyptian General Petroleum Corporation","30/09/2010"
697,"Sea of Azov","","BLK",154,"W",,,""," ","","","20/09/2016"
698,"Inhassoro","MOZ","EAF",40,"P",-12.5333,35.2167,"","MZ ","","","04/09/2012"
699,"Sault Ste. Marie","CAN","CAN",285,"P",46.5147,-84.3525,"-","CA SSM","PYGBTA","Port of Sault Ste. Marie","26/07/2016"
700,"Palm Is.","VCT","CAR",31,"L",12.5858,-61.3964,"","VC ","","","20/10/2016"
701,"Tovqussaq","GRL","SCN",1170,"P",64.8667,-52.2,"","GL ","","","12/09/2017"
702,"Amfilochia","GRC","SEU",433,"P",38.8667,21.1667,"","GR AMF","","","07/07/2016"
703,"Maizuru","JPN","JPN",62,"P",35.4833,135.3667,"JP139","JP MAI","PYGCBDT","Port of Maizuru","04/11/2008"
704,"Guaranao Bay","VEN","SAA",416,"P",11.6698,-70.2136,"2190","VE GUB","GCBT","Instituto Autonomo de Puertos (IAPEF)","31/10/2017"
705,"Terhagen","BEL","NEU",441,"P",51.0833,4.3833,"","BE TGN","","","20/07/2011"
706,"Capraia Is.","ITA","SEU",152,"P",43.0464,9.8223,"","IT CPA","","","07/07/2016"
707,"Port Huron","USA","CAN",249,"P",42.9833,-82.4333,"-","US PHN","GT","Port Huron Seaway Terminal Company","26/07/2016"
708,"Heath Point","CAN","CAN",115,"L",49.0833,-61.7,"","CA ","","","26/07/2016"
709,"Port Hardy","CAN","USP",137,"P",50.7167,-127.4833,"-","CA PHY","PGLBA","Port Hardy Harbour Authority","05/10/2017"
710,"Benjamim Constant","BRA","SAA",303,"P",-4.3833,-69.9833,"","BR QAV","","","31/10/2017"
711,"Nordre Stromfjord","GRL","SCN",1160,"W",67.75,-52.3333,"","GL ","","","12/09/2017"
712,"Fano Is.","DNK","SCN",1123,"P",55.4167,8.4167,"","DK AAK","","","12/09/2017"
713,"Kangerlussuaq","GRL","SCN",1164,"P",66.9667,-50.95,"-","GL SFJ","PGBA","Pilersuisoq A/S","12/09/2017"
714,"Rainham(Kent)","GBR","UKE",45,"P",51.3833,.6167,"","GB RNA","","","28/06/2012"
715,"Taharoa Terminal","NZL","AUS",280,"T",-38.1667,174.6667,"NZ 4424","NZ THH","Y","New Zealand Steel Mining Limited","08/01/2018"
716,"St. Croix","VIR","CAR",96,"L",,,"","VI STX","","","21/07/2017"
717,"Joensuu","FIN","SCN",820,"P",62.6,29.75,"-","FI JOE","YGA","Port of Joensuu","04/07/2017"
718,"Ribadesella","ESP","IBE",22,"P",43.4667,-5.0667,"","ES RBS","","","09/07/2008"
719,"Stigsnaesvaerkets Havn","DNK","SCN",1025,"P",55.2069,11.2483,"2597","DK STN","PYBT","DONG Energy A/S","12/09/2017"
720,"Dartmouth","GBR","UKE",121,"P",50.35,-3.5833,"2253","GB DTM","RBTA","Dart Harbour & Navigation Authority","29/08/2012"
721,"Tierra del Fuego","ARG","SAA",20,"L",,,"","AR ","","","31/10/2017"
722,"Pyeongtaek","KOR","CHI",427,"P",36.9969,126.7914,"1271","KR PTK","PQGCRBT","Pyeongtaek Regional Maritime Affairs & Port Office","13/11/2017"
723,"Loch Linnhe","GBR","UKE",474,"W",,,"","GB ","","","05/06/2017"
724,"Dartmouth(NS)","CAN","CAN",42,"P",44.6667,-63.5833,"","CA DAR","","","26/07/2016"
725,"Clarkson","CAN","CAN",184,"P",43.4986,-79.6056,"","CA CSN","","","26/07/2016"
726,"Gronsfjord","NOR","SCN",448,"P",58.0167,7.0333,"","NO GFD","","","04/07/2017"
727,"Long Island(AK USA)","USA","USP",99,"L",54.8711,-132.7186,"","US ","","","05/10/2017"
728,"Gibraltar(fo)","GIB","SEU",2,"L",,,"","GI ","","","11/06/2007"
729,"Vatia Point","FJI","AUS",369,"L",,,"","FJ ","","","08/01/2018"
730,"Fujairah","ARE","ARA",15,"P",25.1798,56.3586,"3520/3526","AE FJR","PYGCLBTA","Port of Fujairah","12/09/2017"
731,"Gibraltar","GIB","SEU",1,"P",36.1361,-5.3542,"144/145","GI GIB","PGCRLBDTA","Gibraltar Port Authority","02/11/2009"
732,"Algiers","DZA","NAF",101,"P",36.7706,3.0531,"2555/855","DZ ALG","PQYGCRLBDTA","Entreprise Portuaire d'Alger","06/07/2016"
733,"Point Lynas","GBR","UKE",218,"P",53.4167,-4.2833,"","GB PLS","","","29/08/2012"
734,"Kirkcudbright","GBR","UKE",386,"P",54.8333,-4.05,"1344","GB KBT","GBTA","Dumfries & Galloway Council","05/06/2017"
735,"Ambelaki Bay","GRC","SEU",486,"W",,,"","GR ","","","07/07/2016"
736,"Seskaro Is.","SWE","SCN",726,"P",65.7167,23.75,"","SE SES","","","04/07/2017"
737,"Monte Carlo","MCO","SEU",93,"P",43.735,7.4261,"149/2244","MC MCM","GLBA","Societe d'Exploitation des Ports de Monaco (SEPM)","09/05/2017"
738,"Ambelaki","GRC","SEU",487,"P",37.9508,23.5289,"","GR ABI","","","07/07/2016"
739,"Mauritania","MRT","WAF",22,"Z",,,"","MR ","","","08/07/2013"
740,"Raiatea Is.","PYF","AUS",392,"L",-16.8234,-151.4158,"","PF ","","","08/01/2018"
741,"Newburgh(GBR)","GBR","UKE",644,"P",56.35,-3.25,"1481","GB NBU","","","03/01/2018"
742,"Naantali","FIN","SCN",766,"P",60.4667,22.0167,"3436","FI NLI","PQYGRBDTA","Port of Naantali","04/07/2017"
743,"Santo Tomas de Castilla","GTM","CAM",134,"P",15.6936,-88.6153,"2988","GT STC","PQYGCRLBTA","Empresa Portuaria Nacional Santo Tomas de Castilla (EMPORNAC)","15/11/2016"
744,"Newburgh(USA)","USA","USA",121,"P",41.5,-74.0833,"","US SWF","","","01/08/2016"
745,"Bali Is.","IDN","SEA",229,"L",,,"","ID ","","","13/02/2018"
746,"Bird Is.","ZAF","EAF",26,"P",-33.8167,26.2833,"","ZA ","","","04/09/2012"
747,"Batu Ampar","IDN","SEA",58,"P",1.1667,104,"","ID BUR","","","23/05/2017"
748,"Cook Islands","COK","AUS",350,"L",,,"","CK ","","","08/01/2018"
749,"Killyleagh","GBR","UKE",297,"P",54.4,-5.65,"","GB KYH","","","18/10/2013"
750,"Preston(CUB)","CUB","CAR",232,"P",20.7833,-75.65,"","CU PST","","","21/07/2017"
751,"Pico Is.","AZO","IBE",109,"P",38.4667,-28.3,"","PT ","","","30/03/2016"
752,"Amagasaki","JPN","JPN",158,"P",34.7108,135.3905,"JP1107","JP AMA","PQYGBTA","Port & Harbour Section of Hyogo Prefecture","03/11/2008"
753,"Empire","USA","USG",95,"P",29.4,-89.6,"","US EPW","","","21/01/2015"
754,"Grand Haven","USA","CAN",339,"P",43.0667,-86.25,"-","US GHN","PGA","City of Grand Haven","26/07/2016"
755,"Mull Is.","GBR","UKE",476,"L",,,"","GB ","","","05/06/2017"
756,"Grenadines","VCT","CAR",28,"L",,,"","VC ","","","20/10/2016"
757,"Porto Laguna","BRA","SAA",135,"P",-28.5,-48.75,"","BR ","","","31/10/2017"
758,"West coast Canada","CAN","USP",135,"L",,,"","CA ","","","05/10/2017"
759,"Gunness","GBR","UKE",731,"P",53.588,-.7298,"109","GB GUS","PQYG","RMS Europe Group Limited","03/01/2018"
760,"Cumarebo","VEN","SAA",407,"P",11.5,-69.35,"-","VE CMR","YG","Cumarebo Port Authority","31/10/2017"
761,"Val St. Lambert","BEL","NEU",432,"P",50.5667,5.4667,"","BE VSB","","","29/03/2012"
762,"Fehmarn Is.","DEU","SCN",958,"L",54.4375,11.1969,"","DE ","","","12/09/2017"
763,"Ostermoor","DEU","SCN",972,"P",53.9167,9.1833,"","DE OSR","","","12/09/2017"
764,"Siracusa","ITA","SEU",239,"P",37.0606,15.2933,"966/973","IT SIR","YGBTA","Capitaneria di Porto di Siracusa","15/11/2016"
765,"Sanchez","DOM","CAR",136,"P",19.2333,-69.6,"463","DO SNZ","","","21/07/2017"
766,"Puerto Castilla","HND","CAM",124,"P",16.0167,-86.05,"513","HN PCA","QGCRA","Empresa Nacional Portuaria","29/12/2016"
767,"Waingapu","IDN","SEA",254,"P",-9.6167,120.2167,"","ID WGP","","","13/02/2018"
768,"Kurucasile","TUR","BLK",277,"P",41.8333,32.7,"","TR KRL","","","28/03/2017"
769,"Skarrehage","DNK","SCN",1115,"P",56.95,8.8667,"","DK SRE","","","12/09/2017"
770,"Paisley","GBR","UKE",414,"P",55.85,-4.4333,"","GB PAS","","","05/06/2017"
771,"Tsukumi Bay","JPN","JPN",373,"W",,,"","JP ","","","10/02/2015"
772,"Hakatashima","JPN","JPN",113,"L",,,"","JP HKS","","","16/11/2007"
773,"Greymouth","NZL","AUS",308,"P",-42.4333,171.2167,"NZ 71","NZ GMN","YGCRBA","Port of Greymouth Management Limited","08/01/2018"
774,"Zhangjiagang","CHN","CHI",337,"P",31.9664,120.3969,"1619","CN ZJG","PYGCBT","Zhangjiagang Port Group Company Limited","13/11/2017"
775,"Gorleston Roads","GBR","UKE",759,"A",52.567,1.767,"","GB ","","","03/01/2018"
776,"San Sebastian Terminal","ARG","SAA",23,"T",-53.3167,-68.2667,"554","AR SSN","P","Pan American Fueguina S.A.","31/10/2017"
777,"Dormagen","DEU","NEU",322,"P",51.093,6.8422,"","DE DMG","","","15/08/2013"
778,"Eastport","USA","USA",223,"P",44.9,-66.9833,"352","US EPM","PQCRBDTA","Eastport Port Authority","01/08/2016"
779,"Bolshevik Is.","RUS","CHI",547,"L",78.63,102.4803,"","RU ","","","13/11/2017"
780,"Makurazaki","JPN","JPN",358,"P",31.2667,130.3,"","JP MKK","","","10/02/2015"
781,"Coco Is.(MMR)","MMR","IND",200,"P",14.1833,93.3833,"","MM ","","","18/10/2017"
782,"Bering Sea","RUS","CHI",531,"W",,,"","RU ","","","13/11/2017"
783,"Quatsino Sound","CAN","USP",205,"W",,,"","CA QTS","","","20/12/2017"
784,"Viola Macae","BRA","SAA",199,"O",,,"","BR ","","","31/10/2017"
785,"Port Askaig","GBR","UKE",463,"P",55.85,-6.1,"2481","GB PAK","GRBA","Argyll & Bute Council","05/06/2017"
786,"Dubrovnik","HRV","SEU",407,"P",42.6333,18.1167,"683","HR DBV","YGRLA","Port Authority of Dubrovnik","07/07/2016"
787,"Huarmey","PER","SAP",55,"P",-10.0833,-78.15,"3091","PE HUY","","","29/01/2014"
788,"East coast Canada","CAN","CAN",1,"L",,,"","CA ","","","11/06/2007"
789,"Shibaura","JPN","JPN",220,"P",35.6167,139.75,"","JP SBU","","","19/02/2010"
790,"Mejillones","CHL","SAP",85,"P",-23.0922,-70.4225,"3076","CL MJS","YBA","Compania Portuaria Mejillones S.A.","21/02/2018"
791,"Tofts Voe","GBR","UKE",567,"P",60.4664,-1.2094,"","GB TVE","","","22/11/2017"
792,"Jura Is.","GBR","UKE",458,"P",55.85,-6.0833,"","GB ","","","05/06/2017"
793,"Kalamaki Bay","GRC","SEU",478,"W",,,"","GR ","","","07/07/2016"
794,"Niue","NIU","AUS",418,"L",,,"","NU IUE","","","08/01/2018"
795,"The Sound","","SCN",596,"W",55.75,12.75,""," ","","","04/07/2017"
796,"Kalamaki","GRC","SEU",479,"P",37.9178,23.0855,"1600","GR KLM","","Isthmia Port Authority","21/09/2017"
797,"Poro(Luzon)","PHL","SEA",565,"P",16.6092,120.2969,"","PH PRO","","","13/02/2018"
798,"Freeport","","CAR",276,"X",,,""," ","","","21/07/2017"
799,"Detour","USA","CAN",283,"P",45.9944,-83.9028,"","US DDU","","","26/07/2016"
800,"Port Elizabeth Anch.","ZAF","EAF",24,"A",-33.8966,25.7203,"","ZA ","","","04/09/2012"
801,"North Foreland","GBR","UKE",58,"L",51.3667,1.45,"","GB ","","","28/06/2012"
802,"Bear Is.","SJM","SCN",15,"P",74.5,19.2,"","SJ ","","","11/06/2007"
803,"Narragansett Bay","USA","USA",177,"W",,,"","US ","","","01/08/2016"
804,"Weston Marsh Lock","GBR","UKE",243,"W",,,"","GB ","","","16/10/2013"
805,"Ayr","GBR","UKE",398,"P",55.4703,-4.6328,"1866","GB AYR","YGRBA","Associated British Ports","05/06/2017"
806,"Mississippi","USA","USG",173,"L",,,"","US ","","","15/09/2017"
807,"Ise Bay","JPN","JPN",176,"W",,,"","JP ","","","19/02/2010"
808,"Naoetsu","JPN","JPN",50,"P",37.1833,138.25,"1342","JP NAO","PYGCBT","Port of Naoetsu","15/11/2016"
809,"Cowichan Bay","CAN","USP",178,"P",48.75,-123.6,"4920","CA CCB","YB","Westcan Terminals Limited","20/12/2017"
810,"Kyrksaetrora","NOR","SCN",206,"P",63.2833,9.0833,"","NO KYR","","","14/04/2016"
811,"Kolkata","IND","IND",171,"P",22.5833,88.35,"135","IN CCU","PYGCBDTA","Kolkata Port Trust","18/10/2017"
812,"Lanzarote","CNI","IBE",129,"L",29.0333,-13.6167,"","ES ACE","","","30/03/2016"
813,"Shoab Ali Field","EGY","RED",41,"O",27.9344,33.7292,"","EG ","","","30/10/2015"
814,"Varkaus","FIN","SCN",819,"P",62.3333,27.8333,"-","FI VRK","PYGRBDTA","Varkaus Harbour Office","04/07/2017"
815,"Vinaroz","ESP","SEU",48,"P",40.4667,.4667,"","ES VZR","","","15/06/2015"
816,"Mers el Kebir","DZA","NAF",113,"P",35.7333,-.7,"","DZ MKR","","","06/07/2016"
817,"Thiruvananthapuram","IND","IND",100,"P",8.4833,76.95,"","IN TRV","","","18/10/2017"
818,"Vostochnyy","RUS","CHI",501,"P",42.7503,133.0767,"3041","RU VYP","QYGCRBT","Vostochny Port Authority","13/11/2017"
819,"Alicante","ESP","SEU",24,"P",38.3372,-.488,"469/473","ES ALC","PQYGCRLBTA","Autoridad Portuaria de Alicante","15/06/2015"
820,"Mazara del Vallo","ITA","SEU",228,"P",37.6522,12.5817,"964","IT MAZ","QGBA","Capitaneria di Porto di Mazara del Vallo","07/07/2016"
821,"Piraeus","GRC","SEU",494,"P",37.9408,23.643,"1596","GR PIR","PQYGCRLBDTA","Piraeus Port Authority S.A.","07/07/2016"
822,"Havneby","DNK","SCN",1127,"P",55.1,8.5667,"","DK HNB","","","12/09/2017"
823,"Rathmullen","IRL","UKE",377,"P",55.0969,-7.5364,"","IE RAT","","","05/06/2017"
824,"Mindoro Is.","PHL","SEA",512,"L",,,"","PH ","","","13/02/2018"
825,"San Sebastian(ESP)","ESP","IBE",6,"P",43.3167,-1.9833,"","ES EAS","","","29/02/2012"
826,"San Fernando(ARG)","ARG","SAA",61,"P",-34.45,-58.5333,"","AR SFE","","","31/10/2017"
827,"Cudillero","ESP","IBE",28,"P",43.55,-6.15,"","ES CLO","","","29/02/2012"
828,"Tartous","SYR","EMD",106,"P",34.9,35.8667,"1579","SY TTS","PYGCRLBTA","Tartous Port General Company","28/06/2017"
829,"Stanley Harbour","FLK","SAA",18,"P",-51.6833,-57.8333,"1614","FK PSY","GCRLBA","Fisheries Department of Falkland Islands","31/10/2017"
830,"Rotterdam","NLD","NEU",231,"P",51.9,4.4833,"122/132/133","NL RTM","PQYGCRLBDTA","Havenbedrijf Rotterdam N.V.","15/11/2016"
831,"Leeuwarden","NLD","NEU",139,"P",53.2,5.7833,"","NL LWR","","","19/08/2013"
832,"Pedregal","PAN","CAM",83,"P",8.35,-82.4333,"1926","PA PED","YBA","Autoridad Maritima de Panama","10/02/2015"
833,"San Esteban de Pravia","ESP","IBE",26,"P",43.5667,-6.0833,"","ES SEO","","","09/07/2008"
834,"Palangkaraya","IDN","SEA",476,"P",-2.2667,113.9167,"","ID PKY","","","13/02/2018"
835,"Nordenham","DEU","NEU",82,"P",53.4833,8.4833,"3621","DE NHA","QYGCRBTA","Rhenus Midgard GmbH","04/11/2010"
836,"Prescott","CAN","CAN",163,"P",44.7089,-75.517,"4793","CA PRE","YGTA","Port of Prescott","26/07/2016"
837,"Nakanoseki","JPN","JPN",81,"P",34,131.5667,"","JP NAN","","","15/11/2016"
838,"Carnarvon","AUS","AUS",153,"P",-24.8833,113.6667,"","AU CVQ","","","08/01/2018"
839,"City Is.","USA","USA",140,"P",40.85,-73.7833,"","US ISD","","","01/08/2016"
840,"Pemangkat","IDN","SEA",490,"P",1.1333,108.9167,"3720","ID PEM","","","13/02/2018"
841,"Tsu","JPN","JPN",183,"P",34.6698,136.5411,"","JP TSU","","","19/02/2010"
842,"Einswarden","DEU","NEU",83,"P",53.5167,8.5167,"","DE EIW","","","29/02/2012"
843,"Amsterdam","NLD","NEU",203,"P",52.3955,4.8753,"124","NL AMS","PQYGCRLBDTA","Haven Amsterdam","15/11/2016"
844,"Port Vincent","AUS","AUS",188,"P",-34.95,137.8667,"","AU PVT","","","08/01/2018"
845,"Fur","DNK","SCN",1113,"P",56.8333,9,"","DK FUH","","","12/09/2017"
846,"Trombetas","BRA","SAA",294,"P",-1.4667,-56.3833,"2229","BR TMT","YGT","Mineracao Rio do Norte S.A. (MRN)","31/10/2017"
847,"Newport(Co Mayo)","IRL","UKE",368,"P",53.8833,-9.55,"","IE NET","","","05/06/2017"
848,"Oss","NLD","NEU",269,"P",51.7667,5.5167,"","NL OSS","","","19/08/2013"
849,"Oginohama","JPN","JPN",247,"P",38.3833,141.3667,"","JP OGH","","","19/02/2010"
850,"Tyssedal","NOR","SCN",373,"P",60.1161,6.5569,"","NO TSX","","","25/01/2017"
851,"Brokdorf","DEU","NEU",23,"P",53.8667,9.3333,"","DE ","","","11/06/2007"
852,"Norsbron","SWE","SCN",570,"P",59.4167,13.2333,"","SE NSB","","","04/07/2017"
853,"Nias Is.","IDN","SEA",126,"L",1.1,97.5333,"","ID ","","","13/02/2018"
854,"Baltimore","USA","USA",71,"P",39.282,-76.6142,"2850/2922","US BAL","PQYGCRLBDTA","Maryland Port Administration","01/08/2016"
855,"Abu Musa","IRN","ARA",26,"L",25.8667,55.0333,"","IR AEU","","","12/09/2017"
856,"Freeport(BHS)","BHS","CAR",277,"P",26.5189,-78.7689,"398","BS FPO","PQYGCRLBTA","Freeport Harbour Company","21/07/2017"
857,"Tar","HRV","SEU",338,"P",45.3167,13.6167,"","HR TAR","","","07/07/2016"
858,"La Paz(MEX)","MEX","CAM",16,"P",24.1667,-110.3167,"3061","MX LAP","PGBA","Administracion Portuaria Integral de Baja California Sur S.A. de C.V.","07/02/2012"
859,"Louisiana","USA","USG",57,"L",,,"","US LUA","","","21/01/2015"
860,"Mangalore","IND","IND",89,"P",12.8333,74.8167,"","IN IXE","","","18/10/2017"
861,"Chaguaramas","TTO","CAR",18,"P",10.6814,-61.6447,"474","TT CHA","GBTA","Chag Terms (Trinidad) Limited","20/10/2016"
862,"Southwest Pass","USA","USG",85,"W",,,"","US ","","","21/01/2015"
863,"March Point","USA","USP",233,"P",48.5,-122.5667,"","US MO5","","","20/12/2017"
864,"Jambongan","MYS","SEA",403,"P",6.6667,117.5,"","MY JAM","","","13/02/2018"
865,"Richibucto","CAN","CAN",87,"P",46.6833,-64.8667,"","CA RBT","","","26/07/2016"
866,"Ras Baridi","SAU","RED",53,"P",24.2667,37.5167,"","SA RBD","","","29/02/2012"
867,"Nieuwerkerk aan den Yssel","NLD","NEU",242,"P",51.9667,4.5833,"","NL NIE","","","07/03/2012"
869,"Abkatun Terminal","MEX","CAM",177,"T",19.4833,-92.5167,"","MX ","","","29/09/2015"
870,"Par","GBR","UKE",132,"P",50.35,-4.7,"31","GB PAR","","","29/08/2012"
871,"Point Wells","USA","USP",238,"P",47.7833,-122.4,"","US OW4","","","20/12/2017"
872,"Tembladora","TTO","CAR",15,"P",10.685,-61.5969,"474","TT TEM","YGBTA","Alcoa Steamship Company Incorporated","20/10/2016"
873,"Yap","FSM","AUS",17,"P",9.5,138.1333,"1485","FM YAP","GCBA","Yap Port Authority","04/11/2008"
874,"Point Wilson","AUS","AUS",197,"P",-38.1,144.5,"","AU PWI","","","08/01/2018"
875,"Thorshofn","ISL","SCN",1248,"P",66.2,-15.3333,"2900","IS THO","G","Langaneshafnir","12/09/2017"
876,"Cephalonia","GRC","SEU",441,"L",,,"203","GR CPN","","Argostoli Port Police","07/07/2016"
877,"Kos","GRC","EMD",34,"P",36.8833,27.3167,"1055","GR KGS","PGRA","Port Authority of Kos","15/11/2016"
878,"Kallviken","SWE","SCN",716,"P",64.3333,21.3667,"","SE KLN","","","04/07/2017"
879,"Suralaya","IDN","SEA",186,"P",-5.8833,106.0167,"","ID SLY","","","13/02/2018"
880,"Hashihama","JPN","JPN",263,"P",34.1,132.9667,"","JP HAS","","","15/08/2013"
881,"Toamasina","MDG","EAF",69,"P",-18.15,49.4167,"688","MG TOA","PYGCRTA","Societe d'Exploitation du Port de Toamasina","05/01/2016"
882,"Ishigaki Bay","JPN","JPN",386,"W",,,"","JP ","","","22/11/2016"
883,"Porto Santo","PMD","IBE",126,"P",33.05,-16.3333,"1685/1689","PT PXO","PGCRTA","Administracao dos Portos da Regiao Autonoma da Madeira S.A.","30/03/2016"
884,"Bay of Bengal","IND","IND",139,"W",15,88,"","IN ","","","18/10/2017"
885,"Santan Terminal","IDN","SEA",432,"T",-.1167,117.5333,"3040","ID SAT","PQ","Chevron Indonesia Company","13/02/2018"
886,"Matarani","PER","SAP",74,"P",-16.9833,-72.1167,"3084","PE MRI","PQYGCRBTA","Terminal Internacional del Sur S.A. (TISUR)","29/01/2014"
887,"Oro Bay","PNG","AUS",60,"P",-8.8333,148.5,"AUS 520","PG ROR","GBA","PNG Ports Corporation Limited","29/09/2016"
888,"Ishigaki","JPN","JPN",396,"P",24.3333,124.1667,"","JP ISG","","","22/11/2016"
889,"Fos","FRA","SEU",72,"P",43.435,4.9081,"155","FR FOS","PQYGCRBA","Grand Port Maritime de Marseille","07/07/2016"
890,"Backviken","SWE","SCN",601,"P",55.9,12.7167,"","SE BAC","","","04/07/2017"
891,"Isle of Pines","NCL","AUS",349,"L",-22.6156,167.4833,"","NC ","","","08/01/2018"
892,"Colachel","IND","IND",101,"P",8.1667,77.25,"1586","IN COL","","","18/10/2017"
893,"Wallaroo","AUS","AUS",179,"P",-33.9295,137.6248,"AUS 777","AU WAL","YGBT","Flinders Ports Proprietary Limited","08/01/2018"
894,"San Blas Is.","PAN","CAM",97,"L",,,"","PA ","","","29/09/2015"
895,"Busuanga Is.","PHL","SEA",507,"L",12.1,120.0833,"","PH ","","","13/02/2018"
896,"Chaguaramas Bay","TTO","CAR",17,"W",,,"","TT ","","","20/10/2016"
897,"Edshultshall","SWE","SCN",536,"P",58.1167,11.4667,"","SE ","","","04/07/2017"
898,"Sylt Is.","DEU","NEU",12,"L",54.9,8.3333,"","DE ","","","23/08/2011"
899,"Le Guildo","FRA","NEU",564,"P",48.6333,-2.2333,"2669","FR LGU","GBA","Port Authority of Le Guildo","18/09/2017"
900,"Sungei Pakning","IDN","SEA",82,"P",1.3667,102.1833,"3947","ID SEQ","PGBTA","PT (Persero) Pelabuhan Indonesia I","23/05/2017"
901,"Guanaja Is.","HND","CAM",126,"P",16.4167,-85.9667,"","HN GJA","","","29/09/2015"
902,"Cape Canaveral","USA","USA",16,"P",28.4667,-80.55,"","US CPV","","","10/02/2015"
903,"Port Sultan Qaboos","OMN","ARA",2,"P",23.6267,58.5673,"3518","OM OPQ","QYGCRLBTA","Port Services Corporation (SAOG)","01/04/2016"
904,"Minatitlan","MEX","CAM",180,"P",18,-94.5333,"1225","MX MTT","PYGBT","Minatitlan Port Authority","29/09/2015"
905,"Millbank","CAN","CAN",89,"P",47.05,-65.45,"","CA MLK","","","26/07/2016"
906,"Kiel Canal","DEU","SCN",964,"C",,,"2469","DE ","","Wasser-und Schifffahrtsamt Kiel-Holtenau Bauhof","12/09/2017"
907,"Kismayu","SOM","EAF",125,"P",-.3603,42.5489,"1052","SO KMU","GCTA","Somali Ports Authority","05/01/2016"
908,"El Palito","VEN","SAA",388,"P",10.4833,-68.1167,"1628","VE ELP","PQB","Petroleos de Venezuela S.A. (PDVSA)","31/10/2017"
909,"Gulfport","USA","USG",177,"P",30.35,-89.0833,"3858","US GPT","YGCRLBTA","Mississippi State Port Authority at Gulfport","15/09/2017"
910,"Lake Huron","","CAN",250,"W",44.8078,-82.4639,""," ","","","26/07/2016"
911,"Tazerka Terminal","TUN","NAF",81,"T",36.6,11.6833,"","TN TAT","","","06/07/2016"
912,"Cres Is.","HRV","SEU",362,"L",44.9608,14.4125,"","HR CRS","","","07/07/2016"
913,"Esperance","AUS","AUS",169,"P",-33.8736,121.8919,"AUS 119","AU EPR","PYGCRLBTA","Esperance Port Authority","08/01/2018"
914,"Red Bay","GBR","UKE",286,"W",,,"","GB ","","","18/10/2013"
915,"Bar","MTG","SEU",419,"P",42.0847,19.0877,"1582/683","ME BAR","PQYGCRBTA","Luka Bar-Preduzece","15/11/2016"
916,"Cuddalore","IND","IND",143,"P",11.7,79.7667,"575","IN CDL","YGT","The Port Officer","18/10/2017"
917,"Espiritu Santo Is.","VUT","AUS",408,"L",,,"","VU SON","","","08/01/2018"
918,"Port Alice","CAN","USP",207,"P",50.3833,-127.45,"-","CA PAC","PYGBTA","Western Pulp Limited Partnership","20/12/2017"
919,"Mandoudhi","GRC","SEU",534,"P",38.8167,23.5333,"","GR MDI","","","07/07/2016"
920,"Usunoura","JPN","JPN",333,"P",33.2,129.5833,"","JP USU","","","30/05/2012"
921,"Port Antonio","JAM","CAR",188,"P",18.1833,-76.45,"458","JM POT","GLBA","Port Authority of Jamaica","21/07/2017"
922,"Shippegan","CAN","CAN",93,"P",47.75,-64.7,"","CA SHP","","","26/07/2016"
923,"Eregli(Sea of Marmara)","TUR","BLK",11,"P",40.9667,27.9667,"1006","TR ELI","QGRT","","17/12/2013"
924,"Seychelles","SYC","EAF",98,"Z",-4.6256,55.4622,"","SC ","","","09/05/2017"
925,"Saganoseki","JPN","JPN",378,"P",33.2497,131.8631,"JP1247A/JP1247B","JP SAG","PQYGCBTA","Port & Harbor Division, Civil Engineering & Construction Dept.","10/02/2015"
926,"Cordemais","FRA","NEU",611,"P",47.2667,-1.8833,"","FR ODM","","","18/09/2017"
927,"Bridport(GBR)","GBR","UKE",109,"P",50.7167,-2.7667,"3315","GB BRP","","","29/08/2012"
928,"Tiwai Point","NZL","AUS",316,"P",-46.6,168.4,"","NZ TPT","","","08/01/2018"
929,"Hatch Point","CAN","USP",179,"L",48.6833,-123.5333,"","CA HAT","","","20/12/2017"
930,"Paraguay","PRY","SAA",82,"Z",,,"","PY ","","","31/10/2017"
931,"Cap Nachtigal","NGA","WAF",162,"L",,,"","NG ","","","08/11/2017"
932,"Tau","NOR","SCN",419,"P",59.0667,5.9333,"","NO TAU","","","04/07/2017"
933,"Mormugao","IND","IND",80,"P",15.4167,73.8,"492","IN MRM","PQYGCRLBDTA","Mormugao Port Trust","18/10/2017"
934,"Cruz Grande","CHL","SAP",94,"P",-29.45,-71.3333,"","CL CGR","","","24/04/2014"
935,"Zandvoort","NLD","NEU",214,"P",52.3667,4.5333,"","NL ZDV","","","14/04/2011"
936,"Port Welshpool","AUS","AUS",202,"P",-38.7,146.4658,"","AU WHL","","","08/01/2018"
937,"Algeciras Bay","ESP","IBE",101,"W",,,"","ES ","","","30/03/2016"
938,"Europoort","NLD","NEU",235,"P",51.9539,4.0542,"","NL EUR","","","12/01/2017"
939,"Astillero","ESP","IBE",19,"P",43.4,-3.8167,"","ES ASO","","","29/02/2012"
940,"Now Shahr","IRN","BLK",223,"P",36.6333,51.5,"-","IR NSH","PQYGCRBTA","Golestan & Mazandaran Provinces Port & Shipping","20/09/2016"
941,"Algeciras","ESP","IBE",102,"P",36.1261,-5.4366,"1455","ES ALG","PQYGCRLBTA","Autoridad Portuaria de la Bahia de Algeciras","15/11/2016"
942,"Goi","JPN","JPN",227,"P",35.5,140.1,"","JP GOI","","","06/03/2012"
943,"Helsingborg","SWE","SCN",598,"P",56.0464,12.69,"877","SE HEL","PQYGCRLBDTA","Helsingborgs Hamn A/B","04/07/2017"
944,"Vladivostok","RUS","CHI",490,"P",43.0983,131.8922,"3044/3045","RU VVO","YGCRLBTA","Vladivostok Commercial Sea Port","13/11/2017"
945,"Mesters Vig","GRL","SCN",1210,"P",72.15,-23.75,"","GL MRG","","","12/09/2017"
946,"Rosslare","IRL","UKE",314,"P",52.25,-6.3333,"1772","IE ROS","RBTA","Iarnrod Eireann (Irish Rail)","15/11/2016"
947,"Aardalstangen","NOR","SCN",310,"P",61.2344,7.7072,"510","NO ARD","PYGBTA","Sognefjord Shipping A/S","12/07/2017"
948,"Fao","IRQ","ARA",103,"P",29.9809,48.4739,"3842/3843","IQ FAO","","","12/09/2017"
949,"Hunnebostrand","SWE","SCN",523,"P",58.4333,11.3,"","SE HUN","","","04/07/2017"
950,"Sandakan","MYS","SEA",404,"P",5.8119,118.0784,"950","MY SDK","PQYGCBTA","Sabah Ports Sendirian Berhad","13/02/2018"
951,"Guatemala","GTM","CAM",49,"Z",,,"","GT ","","","10/02/2015"
952,"Carleton","CAN","CAN",104,"P",48.1,-66.1333,"","CA CLT","","","26/07/2016"
953,"Bangor(GBR)","GBR","UKE",294,"P",54.6647,-5.6686,"1753","GB BAN","","","18/10/2013"
954,"Telukbetung","IDN","SEA",141,"P",-5.45,105.2667,"","ID TBG","","","13/02/2018"
955,"Hao","PYF","AUS",382,"P",-18.0667,-141,"","PF HOI","","","08/01/2018"
956,"Shell Haven","GBR","UKE",10,"P",51.5089,.4825,"2484","GB SHV","","","27/11/2013"
957,"Onomichi","JPN","JPN",116,"P",34.4,133.1833,"694","JP ONO","PYGBDTA","Hiroshima Prefectural Government","04/11/2008"
958,"Chancay","PER","SAP",60,"P",-11.5831,-77.2725,"","PE CHY","","","27/05/2016"
959,"Rye","GBR","UKE",68,"P",50.9333,.7667,"1991","GB RYE","YGBA","Environment Agency","25/01/2013"
960,"Union Hall","IRL","UKE",328,"P",51.5667,-9.1333,"","IE UHL","","","18/10/2013"
961,"Kem","RUS","SCN",54,"P",65,34.7833,"","RU KEM","","","10/08/2015"
962,"Uno","JPN","JPN",129,"P",34.4833,133.95,"694","JP UNO","PQYGBDA","Port & Harbour Section of Okayama Prefecture","13/04/2011"
963,"Antofagasta","CHL","SAP",86,"P",-23.6575,-70.3969,"4223/4227","CL ANF","PQYGCRBTA","Empresa Portuaria Antofagasta","24/02/2014"
964,"Galveston","USA","USG",24,"P",29.3,-94.8,"3183","US GLS","PYGCRLBDTA","Port of Galveston","21/01/2015"
965,"Pare Pare","IDN","SEA",337,"P",-4,119.6167,"2638","ID PAP","PGRB","PT (Persero) Pelabuhan Indonesia IV","13/02/2018"
966,"Halifax","CAN","CAN",39,"P",44.6522,-63.5836,"4752/3/4/5","CA HAL","PQYGCRLBDTA","Halifax Port Authority","26/07/2016"
968,"Reggio di Calabria","ITA","SEU",259,"P",38.1167,15.65,"992","IT REG","GRBA","Capitaneria di Porto di Reggio di Calabria","07/07/2016"
969,"Ekofisk Terminal","NOR","SCN",454,"T",56.55,3.2167,"","NO EKO","","","04/07/2017"
970,"Punta Palmas","VEN","SAA",435,"P",10.45,-71.6333,"1525","VE PLV","PBTA","Petroleos de Venezuela S.A. (PDVSA)","31/10/2017"
971,"Ikuchi Shima","JPN","JPN",111,"L",,,"","JP IKC","","","29/02/2012"
972,"Westzaan","NLD","NEU",197,"P",52.45,4.7833,"","NL WTZ","","","04/11/2010"
973,"Supaval Bay","HRV","SEU",382,"W",43.5,16.3833,"","HR ","","","07/07/2016"
974,"Kyparissia","GRC","SEU",459,"P",37.25,21.6833,"","GR KYP","","","07/07/2016"
975,"Ibo","MOZ","EAF",51,"P",-12.3333,40.6167,"","MZ IBO","","","04/09/2012"
976,"Anacortes","USA","USP",232,"P",48.5167,-122.6167,"4950/54","US OTS","PYGBDTA","Port of Anacortes","20/12/2017"
977,"Argentina","ARG","SAA",19,"Z",,,"","AR ","","","31/10/2017"
978,"Aru Bay","IDN","SEA",102,"W",,,"","ID ","","","13/02/2018"
979,"Izu-Ohshima","JPN","JPN",223,"P",34.7333,139.3667,"","JP IOH","","","12/01/2017"
980,"River Stour","GBR","UKE",768,"W",,,"","GB ","","","03/01/2018"
981,"Lyngenfjord","NOR","SCN",92,"W",,,"","NO ","","","10/08/2015"
982,"Agnesberg","SWE","SCN",548,"P",57.7833,12,"","SE AGB","","","04/07/2017"
983,"Mulgrave","CAN","CAN",57,"P",45.5833,-61.3833,"4758","CA MUL","YGBTA","Strait of Canso Superport Corporation Limited","26/07/2016"
984,"Puerto Real","ESP","IBE",95,"P",36.5333,-6.1833,"","ES PUS","","","30/03/2016"
985,"Ziguinchor","SEN","WAF",44,"P",12.5833,-16.2667,"3532","SN ZIG","PGA","Port of Ziguinchor","08/07/2013"
986,"Walsoorden","NLD","NEU",471,"P",51.45,4.0333,"","NL WSO","","","19/08/2013"
987,"Ilo","PER","SAP",76,"P",-17.6333,-71.35,"3090","PE ILQ","PYGCRBTA","Capitania de Puerto de Ilo","29/01/2014"
988,"Diamante","ARG","SAA",101,"P",-32.0642,-60.632,"1982B","AR DME","YGBA","Ente Autarquico Puerto Diamante","31/10/2017"
989,"Porto Santo Is.","PMD","IBE",125,"L",33.0844,-16.3223,"","PT ","","","30/03/2016"
990,"Sjotorp","SWE","SCN",580,"P",58.8333,14,"","SE ST2","","","04/07/2017"
991,"New Amsterdam","GUY","SAA",331,"P",6.25,-57.5167,"2784","GY NAM","PYGB","Maritime Administration Department","31/10/2017"
992,"Ako","JPN","JPN",140,"P",34.7333,134.3833,"","JP AKO","","","02/07/2013"
993,"Icy Bay","USA","USP",97,"W",59.99,-141.3902,"","US ICY","","","05/10/2017"
994,"Formentera","ESP","SEU",29,"L",38.7,1.45,"","ES FNI","","","15/06/2015"
995,"Buru Is.","IDN","SEA",281,"P",-3.1,126.1,"","ID BRI","","","13/02/2018"
996,"Kingsnorth","GBR","UKE",37,"P",51.417,.6047,"1834/1835","GB KNK","YBTA","Powergen","28/06/2012"
997,"Urdingen","DEU","NEU",315,"P",51.35,6.6667,"","DE ","","","20/07/2011"
998,"Karatsu","JPN","JPN",329,"P",33.4667,129.9667,"3115","JP KAR","QYGBA","Karatsu Port Office of Port & Harbour Bureau","30/05/2012"
999,"Carboneras","ESP","SEU",14,"P",37,-1.8833,"1515","ES CRS","YBTA","Autoridad Portuaria de Almeria","29/04/2009"
1000,"Port Blair","IND","IND",209,"P",11.6667,92.7167,"514","IN IXZ","PYGCRBDA","The Chief Port Administrator","18/10/2017"
1001,"Amamapare","IDN","SEA",788,"P",-4.8256,136.8414,"3527","ID AMA","YBTA","Port of Amamapare","13/02/2018"
1002,"Port Hueneme","USA","USP",315,"P",34.1525,-119.2036,"899","US NTD","PYGCRBTA","Port of Hueneme","20/12/2017"
1003,"Varkhalam Bay","RUS","CHI",530,"W",,,"","RU ","","","13/11/2017"
1004,"Port Townsend","USA","USP",250,"P",48.1167,-122.75,"46/1947","US TWD","PGBA","Port of Port Townsend","20/12/2017"
1005,"Port Hastings","CAN","CAN",63,"P",45.65,-61.4,"","CA PHA","","","26/07/2016"
1006,"Hellesylt","NOR","SCN",249,"P",62.0833,6.8833,"","NO HSY","","","25/01/2017"
1007,"Lekkerkerk","NLD","NEU",248,"P",51.9167,4.6333,"","NL LEK","","","20/07/2011"
1008,"Asa","DNK","SCN",1102,"P",57.15,10.4167,"","DK ASA","","","12/09/2017"
1009,"Tartan Terminal","GBR","UKE",580,"T",58.3667,.0667,"","GB ","","","22/11/2017"
1010,"Nol","SWE","SCN",551,"P",57.9333,12.1333,"","SE ","","","04/07/2017"
1011,"Boqueron","CUB","CAR",198,"P",19.9833,-75.1167,"-","CU BOQ","QYGT","Empresa Terminales Mambisas del Oriente","21/07/2017"
1012,"Aberdeen(GBR)","GBR","UKE",623,"P",57.15,-2.0667,"1446","GB ABD","PQYGCRBDTA","Aberdeen Harbour Board","03/01/2018"
1013,"Sijingkat","MYS","SEA",351,"P",1.5833,110.4333,"","MY SIJ","","","13/02/2018"
1014,"Lilla Edet","SWE","SCN",556,"P",58.1167,12.1167,"","SE LED","","","04/07/2017"
1015,"Tadotsu","JPN","JPN",274,"P",34.2748,133.7433,"","JP TAD","","","15/11/2016"
1016,"Agnefest","NOR","SCN",449,"P",58.1167,7.05,"","NO AFT","","","25/09/2017"
1017,"Chimbote","PER","SAP",54,"P",-9.0745,-78.6108,"3083","PE CHM","PYGCBDTA","Empresa Nacional de Puertos S.A.","04/12/2017"
1018,"Puerto Plata","DOM","CAR",134,"P",19.8167,-70.7,"463","DO POP","YGCRLBTA","Autoridad Portuaria Dominicana (APORDOM)","21/07/2017"
1019,"Jan Mayen Is.","SJM","SCN",1215,"L",70.9833,-8.5333,"","SJ ","","","12/09/2017"
1020,"Bic","CAN","CAN",124,"P",48.3667,-68.75,"","CA BIC","","","26/07/2016"
1021,"Lae","PNG","AUS",58,"P",-6.7333,146.9833,"AUS 523","PG LAE","PQYGCRBTA","PNG Ports Corporation Limited","29/09/2016"
1022,"St. John(VIR)","VIR","CAR",104,"P",18.35,-64.6667,"2183","VI CZB","GRL","Virgin Islands Port Authority","21/07/2017"
1023,"Ogasawara Is.","JPN","JPN",400,"L",,,"","JP OGA","","","22/11/2016"
1024,"Rab","HRV","SEU",366,"P",44.75,14.7667,"","HR RAB","","","07/07/2016"
1025,"Puerto Bayovar","PER","SAP",47,"P",-5.7833,-81.05,"3092","PE PUB","PYBT","Empresa Nacional de Puertos S.A.","29/01/2014"
1026,"Santos Anch.","BRA","SAA",149,"A",-24.1231,-46.3186,"","BR ","","","31/10/2017"
1027,"Hrafneyri","ISL","SCN",1298,"P",64.3833,-21.5333,"","IS HFY","","","12/09/2017"
1028,"Numansdorp","NLD","NEU",372,"P",51.7167,4.4167,"","NL NUD","","","20/07/2011"
1029,"Melville Is.","CAN","CAN",492,"P",75.5,-112,"","CA ","","","07/06/2017"
1031,"Portimao","PRT","IBE",83,"P",37.1333,-8.5333,"83","PT PRM","YGCRLBTA","Instituto Portuario do Sul","30/03/2016"
1032,"Porto Rafti","GRC","SEU",525,"P",37.8833,24,"","GR PRA","","","07/07/2016"
1033,"Koromacno","HRV","SEU",349,"W",44.9667,14.1167,"","HR KRM","","","07/07/2016"
1034,"South Riding Point","BHS","CAR",280,"P",26.6256,-78.2286,"390","BS SRP","PBTA","South Riding Point Holding Limited","21/07/2017"
1035,"Matsuzaka","JPN","JPN",181,"P",34.5667,136.5333,"","JP MSA","","","20/03/2015"
1036,"Raa","SWE","SCN",600,"P",55.9833,12.75,"","SE RAA","","","04/07/2017"
1037,"Grand Batanga","CMR","WAF",176,"P",2.8333,9.8833,"","CM GBA","","","08/11/2017"
1038,"Warkworth","GBR","UKE",681,"P",55.3333,-1.5667,"","GB WKO","","","03/01/2018"
1039,"El Salvador","SLV","CAM",53,"Z",,,"","SV ","","","10/02/2015"
1040,"Atimonan","PHL","SEA",551,"P",14,121.9167,"","PH ATI","","","13/02/2018"
1041,"Colonsay","GBR","UKE",464,"P",56.05,-6.1833,"","GB CSA","","","05/06/2017"
1042,"Sarangani Bay","PHL","SEA",674,"W",5.9667,125.1833,"","PH ","","","13/02/2018"
1043,"Somerset(Mass)","USA","USA",171,"P",41.7833,-71.1333,"","US SS3","","","01/08/2016"
1044,"Tagoloan","PHL","SEA",650,"P",8.5333,124.75,"3426","PH TGO","","","13/02/2018"
1045,"Kantvik","FIN","SCN",793,"P",60.0858,24.3847,"1080/2248","FI KNT","YGBTA","Finnsteve OY AB","04/07/2017"
1046,"Nueva Palmira","URY","SAA",112,"P",-33.8833,-58.4167,"2004","UY NVP","YGBA","Administracion Nacional de Puertos","31/10/2017"
1047,"Rochefort","FRA","NEU",630,"P",45.9333,-.9667,"2747","FR RCO","YGTA","Port de Commerce de Rochefort Tonnay-Charente","18/09/2017"
1048,"River Cess","LBR","WAF",73,"W",5.45,-9.5833,"","LR RVC","","","09/06/2017"
1049,"Avonmouth","GBR","UKE",179,"P",51.5061,-2.7111,"","GB AVO","","","29/07/2013"
1050,"Ulsteinvik","NOR","SCN",255,"P",62.35,5.85,"","NO ULS","","","06/07/2017"
1051,"Somerset(US)","USA","USA",170,"P",41.7833,-71.1333,"","US ","","","01/08/2016"
1052,"Pag","HRV","SEU",370,"P",44.45,15.05,"","HR PAG","","","07/07/2016"
